OBJECTID,CUSTOMER_I,POSTAL_ARE,FULL_POSTA,REC_TYPE,GEO_LEVEL,NT_CITY,COUNTY,STATE,DISPLAY_LI,ROUTING_LI,DISPLAY_LA,DISPLAY_LO,ROUTING_LA,ROUTING_LO,HOUSE_NUMB,BUILDING_N,STREET_NAM,TMO_STREET,HDB,NEAR_FID,NEAR_DIST,NEAR_X,NEAR_Y,is_outlier,Longitude,Latitude,Distance to Nearest POI (m),Distance to Nearest Street (m),Number of POIs within 500m,Distance to Area Centroid (m),z_score_outlier,iqr_outlier,dbscan_outlier,lof_outlier,cluster,Anomaly Score (%),Confidence in Classification,POI Classification,Reasons for Classification
79637,227245.0,,550142.0,S,8.0,SINGAPORE,SINGAPORE,,940416203.0,940416203.0,1.36749,103.87395,1.36748,103.87384,142,,SERANGOON NORTH AVE 1,SERANGOON NORTH AVE 1,Y,5565,0.001188,103.873,1.36832,False,103.87384,1.36748,0.001649,0.000398,2999,0.038402,False,False,False,False,0,0.00%,Low,CORRECT,Normal spatial pattern
67655,169276.0,,466932.0,S,8.0,SINGAPORE,SINGAPORE,,926292151.0,926292151.0,1.31629,103.93674,1.3166,103.9367,39,EAST COAST HILL,SENNETT LN,SENNETT LN,N,1511,0.001159,103.9376,1.31733,False,103.9367,1.3166,9.1e-05,0.000377,2999,0.090875,False,False,False,False,0,0.00%,Low,CORRECT,Normal spatial pattern
113324,248434.0,,763101.0,S,9.0,SINGAPORE,SINGAPORE,,932136522.0,932136522.0,1.43155,103.82797,1.43105,103.82798,101C,,YISHUN AVE 5,YISHUN AVE 5,Y,5754,0.001486,103.829,1.43213,False,103.82798,1.43105,0.001513,0.000863,2999,0.094706,False,False,False,False,1,0.00%,Low,CORRECT,Normal spatial pattern
18399,194701.0,,534875.0,S,8.0,SINGAPORE,SINGAPORE,,116141852.0,116141852.0,1.34035,103.88477,1.34043,103.88489,199,,UPP PAYA LEBAR RD,UPP PAYA LEBAR RD,N,1053,0.002394,103.8841,1.33817,False,103.88489,1.34043,0.000637,0.000136,2999,0.036408,False,False,False,False,0,0.00%,Low,CORRECT,Normal spatial pattern
85778,149331.0,,425840.0,S,9.0,SINGAPORE,SINGAPORE,,116132933.0,116132934.0,1.31308,103.90879,1.3132,103.90903,48D,,LOR J TELOK KURAU,LOR J TELOK KURAU,N,5384,0.000646,103.9094,1.31267,False,103.90903,1.3132,0.00044,0.0,2999,0.065617,False,False,False,False,0,0.00%,Low,CORRECT,Normal spatial pattern
120195,213955.0,,520907.0,S,9.0,SINGAPORE,SINGAPORE,,1040725286.0,1040725285.0,1.35061,103.93938,1.35059,103.9389,907,,TAMPINES AVE 4,TAMPINES AVE 4,Y,4647,0.002425,103.94006,1.35272,False,103.9389,1.35059,0.001877,0.000452,2999,0.091164,False,False,False,False,2,0.00%,Low,CORRECT,Normal spatial pattern
45554,148807.0,,338760.0,S,8.0,SINGAPORE,SINGAPORE,,845355170.0,845355170.0,1.31305,103.86134,1.31295,103.86118,198,,LAVENDER ST,LAVENDER ST,N,3111,0.001096,103.8602,1.31246,False,103.86118,1.31295,0.000675,0.000943,2999,0.028601,False,False,False,False,0,0.00%,Low,CORRECT,Normal spatial pattern
76403,177940.0,,408576.0,S,8.0,SINGAPORE,SINGAPORE,,940042376.0,940042376.0,1.32701,103.89448,1.32681,103.89452,17,TRIPLE ELECTRONIC,UBI CRES,UBI CRES,N,844,0.001326,103.8934,1.3261,True,103.89452,1.32681,0.003902,0.000354,2999,0.047479,False,True,False,True,0,45.00%,Medium,INCORRECT,Isolated from other POIs
2624,213619.0,,648729.0,S,8.0,SINGAPORE,SINGAPORE,,116131545.0,116131545.0,1.35156,103.69973,1.35151,103.69973,1,WESTWOOD PARK,WESTWOOD CRES,WESTWOOD CRES,N,489,0.002536,103.6972,1.35134,False,103.69973,1.35151,0.000801,0.000691,2999,0.149357,False,False,False,False,3,0.00%,Low,CORRECT,Normal spatial pattern
93115,178718.0,,288472.0,S,9.0,SINGAPORE,SINGAPORE,,116156070.0,116141382.0,1.32788,103.80999,1.32771,103.80996,74,WATTEN ESTATE,SHELFORD RD,SHELFORD RD,N,1549,0.000975,103.8091,1.32817,False,103.80996,1.32771,0.001344,0.000815,2999,0.040076,False,False,False,False,0,0.00%,Low,CORRECT,Normal spatial pattern
54108,161116.0,,258908.0,S,8.0,SINGAPORE,SINGAPORE,,901337476.0,901337476.0,1.31416,103.83426,1.31378,103.83424,9,,GOODWOOD HL,GOODWOOD HL,N,2800,0.002259,103.8324,1.31509,False,103.83424,1.31378,0.000817,0.001679,2999,0.028639,False,False,False,False,0,0.00%,Low,CORRECT,Far from streets
28348,193285.0,,618406.0,S,8.0,SINGAPORE,SINGAPORE,,116150141.0,116150141.0,1.33968,103.71831,1.3397,103.71835,3,LAKESIDE GROVE,CORPORATION WALK,CORPORATION WALK,N,4857,0.004347,103.7217,1.33693,False,103.71835,1.3397,0.000391,0.001526,2999,0.130183,False,False,False,False,4,0.00%,Low,CORRECT,Normal spatial pattern
39717,230065.0,,805847.0,S,8.0,SINGAPORE,SINGAPORE,,754539588.0,754539588.0,1.38346,103.87283,1.38351,103.87268,67,KELULUT HILL,KELULUT HL,KELULUT HL,N,1842,0.00371,103.8695,1.3816,False,103.87268,1.38351,0.000557,0.000774,2999,0.050992,False,False,False,False,5,0.00%,Low,CORRECT,Normal spatial pattern
76762,228092.0,,549822.0,S,8.0,SINGAPORE,SINGAPORE,,940104578.0,940104578.0,1.36422,103.87542,1.36417,103.87543,15,NANYANG PARK,CHUAN HOE AVE,CHUAN HOE AVE,N,5539,0.000907,103.8762,1.36369,False,103.87543,1.36417,0.000446,0.00121,2999,0.037115,False,False,False,False,0,0.00%,Low,CORRECT,Normal spatial pattern
109486,216705.0,,510161.0,S,9.0,SINGAPORE,SINGAPORE,,916351778.0,718127772.0,1.36362,103.9619,1.36384,103.96165,161,,PASIR RIS ST 13,PASIR RIS ST 13,Y,874,0.003858,103.9641,1.36086,False,103.96165,1.36384,0.003368,0.000629,2999,0.115903,False,True,False,False,6,20.00%,Low,CORRECT,Normal spatial pattern
122715,148416.0,,389398.0,S,0.0,SINGAPORE,SINGAPORE,,833639281.0,833639281.0,1.31299,103.8817,1.31299,103.88172,435B,,GEYLANG RD,GEYLANG RD,N,4968,0.000886,103.8813,1.31221,False,103.88172,1.31299,0.000175,0.000637,2999,0.041923,False,False,False,False,0,0.00%,Low,CORRECT,Normal spatial pattern
34819,153865.0,,458974.0,S,8.0,SINGAPORE,SINGAPORE,,116161918.0,116161918.0,1.31029,103.91879,1.31047,103.91876,548,SEASIDE PARK,EAST COAST RD,EAST COAST RD,N,993,0.001184,103.91858,1.31164,False,103.91876,1.31047,0.000318,0.000373,2999,0.075656,False,False,False,False,0,0.00%,Low,CORRECT,Normal spatial pattern
42568,133257.0,,208312.0,S,8.0,SINGAPORE,SINGAPORE,,797878499.0,797878499.0,1.30415,103.85367,1.30417,103.8537,15,,MAYO ST,MAYO ST,N,2838,0.000197,103.8536,1.30434,False,103.8537,1.30417,0.000108,0.000328,2999,0.034816,False,False,False,False,0,0.00%,Low,CORRECT,Normal spatial pattern
6668,143036.0,,436793.0,S,8.0,SINGAPORE,SINGAPORE,,116133359.0,116133359.0,1.30804,103.89231,1.30776,103.89237,28,,WAREHAM RD,WAREHAM RD,N,2229,0.002494,103.8904,1.30623,False,103.89237,1.30776,0.00097,0.001541,2999,0.053602,False,False,False,False,0,0.00%,Low,CORRECT,Normal spatial pattern
379,183570.0,,301001.0,S,7.0,SINGAPORE,SINGAPORE,,860545531.0,901122742.0,1.3257,103.84307,1.32515,103.84248,1A,,THOMSON RD,THOMSON RD,Y,3515,0.001183,103.8413,1.32507,False,103.84248,1.32515,0.001331,0.00032,2999,0.014748,False,False,False,False,0,0.00%,Low,CORRECT,Normal spatial pattern
18814,180854.0,,267706.0,S,8.0,SINGAPORE,SINGAPORE,,116141944.0,116141944.0,1.32661,103.79747,1.32642,103.7977,60,,NAMLY AVE,NAMLY AVE,N,1556,0.001631,103.7968,1.32506,False,103.7977,1.32642,0.000958,0.00067,2999,0.052267,False,False,False,False,0,0.00%,Low,CORRECT,Normal spatial pattern
102359,156912.0,,127079.0,S,9.0,SINGAPORE,SINGAPORE,,863797842.0,116158651.0,1.31562,103.7576,1.31556,103.7575,164,HONG LEONG GARDEN SHOPPING CENTRE,WEST COAST DR,WEST COAST DR,N,-1,-1.0,-1.0,-1.0,False,103.7575,1.31556,0.000122,0.00144,2999,0.093899,False,False,False,False,7,0.00%,Low,CORRECT,Normal spatial pattern
44317,135466.0,,189235.0,S,8.0,SINGAPORE,SINGAPORE,,834000831.0,834000831.0,1.30105,103.85894,1.30101,103.8589,42,,HAJI LN,HAJI LN,N,4436,0.000406,103.8593,1.30094,False,103.8589,1.30101,5e-05,0.000642,2999,0.038995,False,False,False,False,0,0.00%,Low,CORRECT,Normal spatial pattern
42307,151541.0,,209084.0,S,8.0,SINGAPORE,SINGAPORE,,784644582.0,784644582.0,1.31097,103.86055,1.31093,103.86043,90,,HORNE RD,HORNE RD,N,650,0.000739,103.861,1.3114,False,103.86043,1.31093,0.0001,0.000767,2999,0.030121,False,False,False,False,0,0.00%,Low,CORRECT,Normal spatial pattern
87032,139147.0,,249009.0,S,9.0,SINGAPORE,SINGAPORE,,116134766.0,116134766.0,1.29307,103.8236,1.29318,103.82346,30A,,JERVOIS RD,JERVOIS RD,N,2180,0.000453,103.8238,1.29348,False,103.82346,1.29318,5.8e-05,0.000828,2999,0.051879,False,False,False,False,0,0.00%,Low,CORRECT,Normal spatial pattern
119166,128276.0,,160128.0,S,9.0,SINGAPORE,SINGAPORE,,947515282.0,907851849.0,1.28154,103.82901,1.28092,103.82895,128,,KIM TIAN RD,KIM TIAN RD,Y,2388,0.002358,103.8272,1.2825,False,103.82895,1.28092,0.002744,0.000209,2999,0.060912,False,True,False,False,0,20.00%,Low,CORRECT,Normal spatial pattern
74621,234034.0,,530545.0,S,8.0,SINGAPORE,SINGAPORE,,939813296.0,939813296.0,1.3781,103.89176,1.37813,103.8919,545,,HOUGANG AVE 8,HOUGANG AVE 8,Y,405,0.005969,103.8971,1.38106,False,103.8919,1.37813,0.003204,0.00023,2999,0.058683,False,True,False,False,0,20.00%,Low,CORRECT,Normal spatial pattern
60152,233291.0,,689008.0,S,8.0,SINGAPORE,SINGAPORE,,914560448.0,914560448.0,1.37749,103.74667,1.37769,103.74665,17,COMFORT GARDEN,HONG SAN WALK,HONG SAN WALK,N,4707,0.001615,103.74598,1.37916,False,103.74665,1.37769,0.000536,0.001238,2999,0.10912,False,False,False,False,8,0.00%,Low,CORRECT,Normal spatial pattern
23644,196748.0,,596238.0,S,8.0,SINGAPORE,SINGAPORE,,116145622.0,116145622.0,1.33612,103.77097,1.33596,103.77103,6,SUMMERLEA GREEN,KISMIS GRN,KISMIS GRN,N,1754,0.001562,103.7715,1.33447,False,103.77103,1.33596,0.000614,0.000262,2999,0.077543,False,False,False,False,0,0.00%,Low,CORRECT,Normal spatial pattern
53056,127595.0,,119142.0,S,8.0,SINGAPORE,SINGAPORE,,897575465.0,897575465.0,1.28094,103.7876,1.2808,103.7875,17,CHESTER PARK,LOR SARHAD,LOR SARHAD,N,4410,0.000688,103.7871,1.28136,False,103.7875,1.2808,0.000841,0.000929,2999,0.084055,False,False,False,False,9,0.00%,Low,CORRECT,Normal spatial pattern
1044,178424.0,,619034.0,S,8.0,SINGAPORE,SINGAPORE,,116130763.0,116130763.0,1.32737,103.7117,1.3278,103.71165,17,PEX INTERNATIONAL,LINK RD,LINK RD,N,211,0.001963,103.7134,1.32691,True,103.71165,1.3278,0.003968,0.00313,2999,0.137304,True,True,False,False,4,60.00%,Medium,INCORRECT,Far from streets; Isolated from other POIs
66755,186069.0,,349772.0,S,8.0,SINGAPORE,SINGAPORE,,925076304.0,925076304.0,1.3336,103.87642,1.33382,103.87635,12,SENNETT ESTATE,BUTTERFLY AVE,BUTTERFLY AVE,N,4873,0.001392,103.875,1.33348,False,103.87635,1.33382,1e-05,0.000966,2999,0.028229,False,False,False,False,0,0.00%,Low,CORRECT,Normal spatial pattern
60829,233480.0,,670254.0,S,8.0,SINGAPORE,SINGAPORE,,915010665.0,915010665.0,1.3796,103.77383,1.37978,103.77375,254,,BANGKIT RD,BANGKIT RD,Y,2418,0.001363,103.7735,1.37844,False,103.77375,1.37978,0.00067,0.000919,2999,0.085367,False,False,False,False,8,0.00%,Low,CORRECT,Normal spatial pattern
61975,228020.0,,530019.0,S,8.0,SINGAPORE,SINGAPORE,,917885337.0,917885337.0,1.3638,103.89179,1.36404,103.8918,19,,HOUGANG AVE 3,HOUGANG AVE 3,Y,5372,0.002729,103.8942,1.36274,False,103.8918,1.36404,0.002304,0.00052,2999,0.050196,False,False,False,True,0,25.00%,Low,CORRECT,Normal spatial pattern
37547,224478.0,,530302.0,S,8.0,SINGAPORE,SINGAPORE,,717922163.0,717922163.0,1.3683,103.8942,1.36817,103.89433,302,,HOUGANG AVE 5,HOUGANG AVE 5,Y,1420,0.001433,103.8929,1.36807,False,103.89433,1.36817,0.000208,0.000376,2999,0.054518,False,False,False,False,0,0.00%,Low,CORRECT,Normal spatial pattern
123716,129879.0,,169248.0,S,0.0,SINGAPORE,SINGAPORE,,907877574.0,907877574.0,1.28505,103.8293,1.28507,103.82945,10A,KAI FOOK MANSION,KIM TIAN RD,KIM TIAN RD,N,3865,0.000196,103.8294,1.28488,False,103.82945,1.28507,0.00024,0.000407,2999,0.056828,False,False,False,False,0,0.00%,Low,CORRECT,Normal spatial pattern
38402,125705.0,,79023.0,S,8.0,SINGAPORE,SINGAPORE,,743698489.0,743698489.0,1.27722,103.84401,1.27719,103.84423,84,,TRAS ST,TRAS ST,N,297,0.001107,103.8438,1.27821,False,103.84423,1.27719,0.000202,0.001143,2999,0.06156,False,False,False,False,0,0.00%,Low,CORRECT,Normal spatial pattern
65595,197727.0,,357926.0,S,8.0,SINGAPORE,SINGAPORE,,924889632.0,924889632.0,1.3366,103.8681,1.3366,103.8681,31,,WOODLEIGH CLOS,WOODLEIGH CLOS,N,-1,-1.0,-1.0,-1.0,False,103.8681,1.3366,0.000827,0.00204,2999,0.019674,False,False,False,True,0,40.00%,Medium,CORRECT,Far from streets
70256,173424.0,,418988.0,S,8.0,SINGAPORE,SINGAPORE,,938954003.0,938954003.0,1.32274,103.91722,1.32295,103.91721,35,,JALAN LAPANG,JALAN LAPANG,N,1542,0.001749,103.918,1.32451,False,103.91721,1.32295,0.000407,0.001118,2999,0.070442,False,False,False,False,0,0.00%,Low,CORRECT,Normal spatial pattern
12899,127774.0,,119166.0,S,8.0,SINGAPORE,SINGAPORE,,116139301.0,116139301.0,1.28051,103.78842,1.28036,103.78836,55,,LOR SARHAD,LOR SARHAD,N,1458,0.000943,103.7893,1.28029,False,103.78836,1.28036,0.000126,0.000874,2999,0.083739,False,False,False,False,9,0.00%,Low,CORRECT,Normal spatial pattern
74732,236833.0,,788099.0,S,8.0,SINGAPORE,SINGAPORE,,939885958.0,939885958.0,1.39829,103.82527,1.39834,103.82527,5,SPRINGLEAF GARDEN,SPRINGLEAF HTS,SPRINGLEAF HTS,N,1403,0.001086,103.8244,1.39769,True,103.82527,1.39834,0.00012,0.002977,2999,0.064108,True,True,False,False,10,60.00%,Medium,INCORRECT,Far from streets
51647,186949.0,,599291.0,S,8.0,SINGAPORE,SINGAPORE,,895523727.0,895523727.0,1.33314,103.76711,1.33331,103.76711,193,ENG KONG PARK,ENG KONG GDN,ENG KONG GDN,N,1753,0.000774,103.7678,1.33366,False,103.76711,1.33331,0.000522,0.000932,2999,0.08159,False,False,False,False,0,0.00%,Low,CORRECT,Normal spatial pattern
20822,140499.0,,278731.0,S,8.0,SINGAPORE,SINGAPORE,,116142969.0,116142969.0,1.30969,103.8025,1.31001,103.80255,7,HOLLAND HILL PARK,HOLLAND HL,HOLLAND HL,N,2038,0.001127,103.8034,1.30927,False,103.80255,1.31001,0.002044,0.00086,2999,0.054142,False,False,False,False,0,0.00%,Low,CORRECT,Normal spatial pattern
26467,239751.0,,809712.0,S,8.0,SINGAPORE,SINGAPORE,,116148482.0,116148482.0,1.39194,103.85171,1.39177,103.85172,3,SELETAR GARDEN,CACTUS CRES,CACTUS CRES,N,1835,0.000513,103.85129,1.39205,False,103.85172,1.39177,0.0004,0.000292,2999,0.053266,False,False,False,False,5,0.00%,Low,CORRECT,Normal spatial pattern
50415,176708.0,,266758.0,S,8.0,SINGAPORE,SINGAPORE,,895249031.0,895249031.0,1.31991,103.80844,1.31978,103.80858,52,,QUEEN'S RD,QUEEN'S RD,N,4328,0.003016,103.811,1.32158,False,103.80858,1.31978,0.00112,0.000232,2999,0.044159,False,False,False,False,0,0.00%,Low,CORRECT,Normal spatial pattern
29526,228681.0,,538949.0,S,8.0,SINGAPORE,SINGAPORE,,116154753.0,116154753.0,1.36525,103.89361,1.36513,103.89383,11,HAI SING PARK,HAI SING CRES,HAI SING CRES,N,5409,0.001396,103.8951,1.36455,False,103.89383,1.36513,0.002304,0.00076,2999,0.052498,False,False,False,False,0,0.00%,Low,CORRECT,Normal spatial pattern
37838,226503.0,,510122.0,S,8.0,SINGAPORE,SINGAPORE,,718127760.0,718127760.0,1.36653,103.95439,1.36635,103.95434,122,,PASIR RIS ST 11,PASIR RIS ST 11,Y,4929,0.005828,103.95933,1.36936,False,103.95434,1.36635,0.001538,0.000718,2999,0.10939,False,False,False,False,11,0.00%,Low,CORRECT,Normal spatial pattern
61140,235785.0,,510502.0,S,8.0,SINGAPORE,SINGAPORE,,916193705.0,916193705.0,1.37559,103.94616,1.37591,103.94606,502,,PASIR RIS ST 52,PASIR RIS ST 52,Y,2423,0.005502,103.941,1.37807,False,103.94606,1.37591,0.001221,0.0006,2999,0.104424,False,False,False,False,12,0.00%,Low,CORRECT,Normal spatial pattern
33031,157847.0,,457329.0,S,8.0,SINGAPORE,SINGAPORE,,116157978.0,116157978.0,1.31498,103.92996,1.31498,103.92998,3,,JALAN TANAH PUTEH,JALAN TANAH PUTEH,N,1527,0.001757,103.9313,1.31382,False,103.92998,1.31498,0.000627,3.2e-05,2999,0.084807,False,False,False,False,0,0.00%,Low,CORRECT,Normal spatial pattern
54194,183895.0,,299893.0,S,8.0,SINGAPORE,SINGAPORE,,901351350.0,901351350.0,1.32428,103.82453,1.32404,103.82436,18,DUNEARN ESTATE,BERRIMA RD,BERRIMA RD,N,2278,0.002648,103.825,1.32661,False,103.82436,1.32404,0.000396,0.001805,2999,0.028215,False,False,False,False,0,0.00%,Low,CORRECT,Far from streets
99364,129738.0,,48905.0,S,9.0,SINGAPORE,SINGAPORE,,833464546.0,833464546.0,1.28431,103.847,1.28431,103.847,42,,NANKIN ST,NANKIN ST,N,-1,-1.0,-1.0,-1.0,False,103.847,1.28431,0.000212,0.000455,2999,0.054312,False,False,False,False,0,0.00%,Low,CORRECT,Normal spatial pattern
32775,161424.0,,279154.0,S,8.0,SINGAPORE,SINGAPORE,,116157772.0,116157772.0,1.3132,103.78361,1.31327,103.7838,14,HENRY PARK,GROVE CRES,GROVE CRES,N,3373,0.00154,103.7853,1.31362,False,103.7838,1.31327,0.000475,0.000987,2999,0.069508,False,False,False,False,0,0.00%,Low,CORRECT,Normal spatial pattern
22998,144159.0,,217991.0,S,8.0,SINGAPORE,SINGAPORE,,116145005.0,116145005.0,1.30666,103.85208,1.30671,103.85197,86,UCO BANK,SERANGOON RD,SERANGOON RD,N,3128,0.000325,103.8522,1.30648,False,103.85197,1.30671,2.2e-05,0.000603,2999,0.032075,False,False,False,False,0,0.00%,Low,CORRECT,Normal spatial pattern
114027,171749.0,,418559.0,S,9.0,SINGAPORE,SINGAPORE,,938953992.0,938953992.0,1.32381,103.91586,1.32379,103.91568,30A,,JALAN SELAMAT,JALAN SELAMAT,N,2166,0.001058,103.915,1.32298,False,103.91568,1.32379,0.001373,0.000733,2999,0.068766,False,False,False,False,0,0.00%,Low,CORRECT,Normal spatial pattern
14147,184136.0,,465838.0,S,8.0,SINGAPORE,SINGAPORE,,116140172.0,116140172.0,1.32431,103.94963,1.32423,103.94948,13,LIMAU VILLAS,LIMAU RISE,LIMAU RISE,N,5179,0.001499,103.9491,1.32568,False,103.94948,1.32423,0.000264,0.000519,2999,0.101969,False,False,False,False,0,0.00%,Low,CORRECT,Normal spatial pattern
116834,245345.0,,554539.0,S,9.0,SINGAPORE,SINGAPORE,,940104064.0,940104064.0,1.36049,103.87144,1.36053,103.87146,11M,MARLENE VILLE,MARLENE AVE,MARLENE AVE,N,3235,0.00216,103.8732,1.36181,False,103.87146,1.36053,0.001022,0.000277,2999,0.03173,False,False,False,False,0,0.00%,Low,CORRECT,Normal spatial pattern
42456,148579.0,,218122.0,S,8.0,SINGAPORE,SINGAPORE,,796211155.0,796211155.0,1.31284,103.85588,1.31267,103.85608,375,,SERANGOON RD,SERANGOON RD,N,3536,0.00102,103.8571,1.3127,False,103.85608,1.31267,0.00059,0.000465,2999,0.027008,False,False,False,False,0,0.00%,Low,CORRECT,Normal spatial pattern
59227,192921.0,,618330.0,S,8.0,SINGAPORE,SINGAPORE,,914154662.0,914154662.0,1.33931,103.71768,1.33917,103.71782,16,LAKESIDE GROVE,CORPORATION RISE,CORPORATION RISE,N,4857,0.00448,103.7217,1.33693,False,103.71782,1.33917,0.000214,0.001,2999,0.130709,False,False,False,False,4,0.00%,Low,CORRECT,Normal spatial pattern
13916,170878.0,,467770.0,S,8.0,SINGAPORE,SINGAPORE,,116140135.0,116140135.0,1.32306,103.95089,1.32309,103.95073,8,KEW COTTAGES,LIMAU WALK,LIMAU WALK,N,1493,0.000653,103.9509,1.32246,False,103.95073,1.32309,0.000587,0.000881,2999,0.103372,False,False,False,False,0,0.00%,Low,CORRECT,Normal spatial pattern
90191,213104.0,,536728.0,S,9.0,SINGAPORE,SINGAPORE,,116142520.0,116142520.0,1.35088,103.88418,1.35082,103.88408,106B,,AH SOO WALK,AH SOO WALK,N,3356,0.001281,103.8828,1.35088,False,103.88408,1.35082,0.000506,0.000901,2999,0.037593,False,False,False,False,0,0.00%,Low,CORRECT,Normal spatial pattern
93717,217913.0,,546331.0,S,9.0,SINGAPORE,SINGAPORE,,116156730.0,116156730.0,1.36109,103.88082,1.36125,103.88079,11D,,RICHARDS PL,RICHARDS PL,N,5531,0.001286,103.8819,1.3619,False,103.88079,1.36125,0.000295,0.001004,2999,0.039419,False,False,False,False,0,0.00%,Low,CORRECT,Normal spatial pattern
85792,159806.0,,425855.0,S,9.0,SINGAPORE,SINGAPORE,,116132937.0,116132937.0,1.314,103.90873,1.31407,103.90893,59C,,LOR J TELOK KURAU,LOR J TELOK KURAU,N,5384,0.001477,103.9094,1.31267,False,103.90893,1.31407,0.000444,0.000876,2999,0.065193,False,False,False,False,0,0.00%,Low,CORRECT,Normal spatial pattern
57915,187773.0,,279697.0,S,8.0,SINGAPORE,SINGAPORE,,910600924.0,910600924.0,1.33184,103.7921,1.33198,103.79218,7,EDEN PARK,FIR AVE,FIR AVE,N,2306,0.002442,103.7946,1.33231,False,103.79218,1.33198,0.000652,0.000521,2999,0.056736,False,False,False,False,0,0.00%,Low,CORRECT,Normal spatial pattern
44854,142594.0,,208710.0,S,8.0,SINGAPORE,SINGAPORE,,840762573.0,840762573.0,1.3082,103.86323,1.30804,103.86339,135,,KALLANG RD,KALLANG RD,N,5676,0.000608,103.8629,1.3084,False,103.86339,1.30804,0.001301,0.000347,2999,0.033982,False,False,False,True,0,25.00%,Low,CORRECT,Normal spatial pattern
87221,245759.0,,758470.0,S,9.0,SINGAPORE,SINGAPORE,,116135432.0,116135432.0,1.44999,103.82859,1.44985,103.82845,878D,SEMBAWANG SQUARE ESTATE,SEMBAWANG RD,SEMBAWANG RD,N,191,0.000807,103.8279,1.45044,False,103.82845,1.44985,0.000448,0.000842,2999,0.113047,False,False,False,False,13,0.00%,Low,CORRECT,Normal spatial pattern
59902,211033.0,,648801.0,S,8.0,SINGAPORE,SINGAPORE,,914338191.0,914338191.0,1.35247,103.70079,1.35229,103.70071,110,WESTWOOD PARK,WESTWOOD CRES,WESTWOOD CRES,N,5701,0.003366,103.7033,1.35014,False,103.70071,1.35229,0.000416,0.000801,2999,0.148451,False,False,False,False,3,0.00%,Low,CORRECT,Normal spatial pattern
16633,187188.0,,488179.0,S,8.0,SINGAPORE,SINGAPORE,,116140739.0,116140739.0,1.33348,103.94539,1.3336,103.94558,33,CANARY PARK,JALAN SIMPANG BEDOK,JALAN SIMPANG BEDOK,N,5345,0.000448,103.9453,1.33325,False,103.94558,1.3336,0.000305,0.000175,2999,0.09718,False,False,False,False,0,0.00%,Low,CORRECT,Normal spatial pattern
51262,195727.0,,658875.0,S,8.0,SINGAPORE,SINGAPORE,,895497906.0,895497906.0,1.33867,103.76147,1.33884,103.76148,24,BURGUNDY HILL,BURGUNDY RISE,BURGUNDY RISE,N,1752,0.003823,103.7646,1.33663,False,103.76148,1.33884,0.000921,0.001077,2999,0.087049,False,False,False,False,0,0.00%,Low,CORRECT,Normal spatial pattern
84048,126135.0,,89674.0,S,8.0,SINGAPORE,SINGAPORE,,1020555734.0,1020555734.0,1.27833,103.84172,1.27845,103.8419,36,,CRAIG RD,CRAIG RD,N,652,0.0013,103.8432,1.27846,False,103.8419,1.27845,0.000693,0.000758,2999,0.060514,False,False,False,False,0,0.00%,Low,CORRECT,Normal spatial pattern
104972,144901.0,,390070.0,S,9.0,SINGAPORE,SINGAPORE,,897259919.0,897259919.0,1.30696,103.8885,1.30698,103.8885,70,,DAKOTA CRES,DAKOTA CRES,N,-1,-1.0,-1.0,-1.0,False,103.8885,1.30698,0.001816,0.000573,2999,0.050966,False,False,False,False,0,0.00%,Low,CORRECT,Normal spatial pattern
35995,130490.0,,48816.0,S,8.0,SINGAPORE,SINGAPORE,,116166265.0,116166265.0,1.28591,103.8491,1.28591,103.8491,2,,N CANAL RD,N CANAL RD,N,-1,-1.0,-1.0,-1.0,False,103.8491,1.28591,0.000813,0.000581,2999,0.052693,False,False,False,False,0,0.00%,Low,CORRECT,Normal spatial pattern
76793,227024.0,,547142.0,S,8.0,SINGAPORE,SINGAPORE,,940104580.0,940104580.0,1.36679,103.87845,1.36657,103.87844,43,PARRY PARK,PARRY TER,PARRY TER,N,5581,0.001187,103.8778,1.36757,False,103.87844,1.36657,0.000746,0.000894,2999,0.040951,False,False,False,False,0,0.00%,Low,CORRECT,Normal spatial pattern
58988,215362.0,,509521.0,S,8.0,SINGAPORE,SINGAPORE,,914024750.0,914024750.0,1.36244,103.96816,1.36229,103.96806,2,BUKIT LOYANG ESTATE,JALAN KELEMPONG,JALAN KELEMPONG,N,1324,0.00234,103.9704,1.36229,False,103.96806,1.36229,0.000403,0.000873,2999,0.121857,False,False,False,False,6,0.00%,Low,CORRECT,Normal spatial pattern
55404,151509.0,,457448.0,S,8.0,SINGAPORE,SINGAPORE,,901977659.0,901977659.0,1.31095,103.92067,1.3109,103.92059,11,SEASIDE PARK,JALAN SAUDARA KU,JALAN SAUDARA KU,N,994,0.002087,103.91865,1.31167,False,103.92059,1.3109,0.00022,0.000552,2999,0.077202,False,False,False,False,0,0.00%,Low,CORRECT,Normal spatial pattern
96351,235152.0,,689479.0,S,9.0,SINGAPORE,SINGAPORE,,717891968.0,718221231.0,1.37601,103.7353,1.37601,103.7353,339,,CHOA CHU KANG AVE 3,CHOA CHU KANG AVE 3,N,-1,-1.0,-1.0,-1.0,True,103.7353,1.37601,0.002906,0.000591,2999,0.119248,False,True,False,True,8,45.00%,Medium,INCORRECT,Normal spatial pattern
2232,204956.0,,537534.0,S,8.0,SINGAPORE,SINGAPORE,,116131225.0,116131225.0,1.34577,103.87661,1.3459,103.87695,47,,JALAN RINDU,JALAN RINDU,N,1573,0.0012,103.878,1.34532,False,103.87695,1.3459,0.000262,0.000313,2999,0.029344,False,False,False,False,0,0.00%,Low,CORRECT,Normal spatial pattern
56363,174354.0,,639490.0,S,8.0,SINGAPORE,SINGAPORE,,905381641.0,905381641.0,1.321,103.65869,1.32072,103.65903,5,FOUNDATION ASSOCIATES ENGINEERING,TUAS AVE 1,TUAS AVE 1,N,371,0.004124,103.6553,1.31896,True,103.65903,1.32072,0.001791,0.001559,2999,0.19034,True,True,False,False,14,45.00%,Medium,INCORRECT,Normal spatial pattern
79231,169136.0,,458771.0,S,8.0,SINGAPORE,SINGAPORE,,940187719.0,940187719.0,1.31648,103.9253,1.31629,103.92535,28,ELITE COURT,ELITE TER,ELITE TER,N,5576,0.001503,103.9267,1.31695,False,103.92535,1.31629,0.000386,0.001224,2999,0.079996,False,False,False,False,0,0.00%,Low,CORRECT,Normal spatial pattern
9156,231782.0,,788728.0,S,8.0,SINGAPORE,SINGAPORE,,116135803.0,116135803.0,1.38109,103.82936,1.38106,103.82933,34,TEACHER'S HOUSING ESTATE,LI PO AVE,LI PO AVE,N,5326,0.00057,103.8299,1.38106,False,103.82933,1.38106,3.6e-05,0.000453,2999,0.046598,False,False,False,False,5,0.00%,Low,CORRECT,Normal spatial pattern
124522,154295.0,,427531.0,S,0.0,SINGAPORE,SINGAPORE,,932529822.0,932529822.0,1.31013,103.9019,1.31012,103.90188,277B,,JOO CHIAT RD,JOO CHIAT RD,N,5259,0.000744,103.9015,1.30948,False,103.90188,1.31012,0.001408,0.000258,2999,0.060478,False,False,False,False,0,0.00%,Low,CORRECT,Normal spatial pattern
48467,224818.0,,658364.0,S,8.0,SINGAPORE,SINGAPORE,,867659143.0,867659143.0,1.36986,103.7519,1.36991,103.7519,28,,PAVILION PL,PAVILION PL,N,758,0.000112,103.7518,1.36996,False,103.7519,1.36991,0.001138,0.000946,2999,0.101574,False,False,False,False,15,0.00%,Low,CORRECT,Normal spatial pattern
64572,189673.0,,369265.0,S,8.0,SINGAPORE,SINGAPORE,,924779094.0,924779094.0,1.33048,103.88417,1.33046,103.88443,42,,JALAN CHENGKEK,JALAN CHENGKEK,N,4762,0.001918,103.8856,1.33198,False,103.88443,1.33046,0.001366,0.001189,2999,0.036813,False,False,False,False,0,0.00%,Low,CORRECT,Normal spatial pattern
4130,161852.0,,389478.0,S,8.0,SINGAPORE,SINGAPORE,,116132412.0,116132412.0,1.31367,103.88586,1.31386,103.88581,522,,GEYLANG RD,GEYLANG RD,N,4994,0.001482,103.886,1.31533,False,103.88581,1.31386,0.000318,0.001121,2999,0.044744,False,False,False,False,0,0.00%,Low,CORRECT,Normal spatial pattern
73431,157654.0,,427248.0,S,8.0,SINGAPORE,SINGAPORE,,939779816.0,939779816.0,1.31452,103.90135,1.31456,103.90135,86,,JOO CHIAT TER,JOO CHIAT TER,N,934,0.000597,103.90076,1.31447,False,103.90135,1.31456,0.000383,0.000873,2999,0.058035,False,False,False,False,0,0.00%,Low,CORRECT,Normal spatial pattern
8257,246335.0,,758335.0,S,8.0,SINGAPORE,SINGAPORE,,116135528.0,116135528.0,1.44171,103.82263,1.44159,103.82249,10,SEMBAWANG GARDEN ARCADE,SEMBONG RD,SEMBONG RD,N,1399,0.004684,103.8247,1.43746,False,103.82249,1.44159,0.00105,0.001175,2999,0.10623,False,False,False,False,16,0.00%,Low,CORRECT,Normal spatial pattern
56091,138981.0,,140049.0,S,8.0,SINGAPORE,SINGAPORE,,902171800.0,902171800.0,1.29407,103.80817,1.29422,103.80813,49,,STRATHMORE AVE,STRATHMORE AVE,Y,4341,0.001201,103.8084,1.29305,False,103.80813,1.29422,0.002657,0.000288,2999,0.060013,False,False,False,False,0,0.00%,Low,CORRECT,Normal spatial pattern
123488,128356.0,,58938.0,S,0.0,SINGAPORE,SINGAPORE,,864803026.0,864803026.0,1.28221,103.84435,1.28214,103.84445,24A,,SMITH ST,SMITH ST,N,2439,0.000515,103.844,1.28189,False,103.84445,1.28214,0.0,0.000318,2999,0.056607,False,False,False,False,0,0.00%,Low,CORRECT,Normal spatial pattern
31222,219610.0,,545017.0,S,8.0,SINGAPORE,SINGAPORE,,116156542.0,116156542.0,1.35989,103.88088,1.35985,103.88091,111,,HIGHLAND RD,HIGHLAND RD,N,5570,0.001464,103.8823,1.35939,False,103.88091,1.35985,4.2e-05,0.001655,2999,0.038732,False,False,False,False,0,0.00%,Low,CORRECT,Far from streets
103554,131608.0,,118758.0,S,9.0,SINGAPORE,SINGAPORE,,880927918.0,880927918.0,1.29149,103.7706,1.29151,103.77059,417A,THE VILLAGE,PASIR PANJANG RD,PASIR PANJANG RD,N,2150,0.00272,103.7685,1.29325,False,103.77059,1.29151,0.000191,0.000152,2999,0.09106,False,False,False,False,7,0.00%,Low,CORRECT,Normal spatial pattern
11986,244964.0,,539367.0,S,8.0,SINGAPORE,SINGAPORE,,116137619.0,116137619.0,1.3595,103.89613,1.35992,103.89634,5,,DEFU LANE 6,DEFU LANE 6,N,5372,0.00354,103.8942,1.36274,False,103.89634,1.35992,0.001401,0.001045,2999,0.05235,False,False,False,False,0,0.00%,Low,CORRECT,Normal spatial pattern
37939,193325.0,,640903.0,S,8.0,SINGAPORE,SINGAPORE,,718163398.0,718163398.0,1.33974,103.68603,1.3397,103.68633,903,,JURONG WEST ST 91,JURONG WEST ST 91,Y,881,0.000751,103.68708,1.33974,True,103.68633,1.3397,0.004532,0.000292,2999,0.162202,True,True,False,False,4,45.00%,Medium,INCORRECT,Isolated from other POIs
41880,208656.0,,557038.0,S,8.0,SINGAPORE,SINGAPORE,,781726508.0,781726508.0,1.35676,103.86429,1.35679,103.86425,3,GOLDEN HILL ESTATE,LI HWAN DR,LI HWAN DR,N,5575,0.002401,103.8623,1.35539,False,103.86425,1.35679,0.00015,0.001068,2999,0.024043,False,False,False,False,0,0.00%,Low,CORRECT,Normal spatial pattern
33853,190824.0,,479239.0,S,8.0,SINGAPORE,SINGAPORE,,116160398.0,116160398.0,1.33135,103.91113,1.33166,103.91066,50,TELOK KURAU PRIMARY SCHOOL,BEDOK RESERVOIR RD,BEDOK RESERVOIR RD,N,222,0.00341,103.9087,1.32887,False,103.91066,1.33166,0.001837,0.001252,2999,0.062518,False,False,False,False,0,0.00%,Low,CORRECT,Normal spatial pattern
118831,156929.0,,259480.0,S,9.0,SINGAPORE,SINGAPORE,,943637122.0,943637122.0,1.31562,103.82536,1.3158,103.82511,74C,,DALVEY RD,DALVEY RD,N,1037,0.001234,103.824,1.31526,False,103.82511,1.3158,0.000778,0.000813,2999,0.032684,False,False,False,False,0,0.00%,Low,CORRECT,Normal spatial pattern
54072,171761.0,,297786.0,S,8.0,SINGAPORE,SINGAPORE,,901330860.0,901330860.0,1.32382,103.81761,1.32384,103.81747,14,,UNIVERSITY WALK,UNIVERSITY WALK,N,3395,0.000598,103.8169,1.32366,False,103.81747,1.32384,0.000799,0.000765,2999,0.034387,False,False,False,False,0,0.00%,Low,CORRECT,Normal spatial pattern
32387,176864.0,,277431.0,S,8.0,SINGAPORE,SINGAPORE,,116157281.0,116157281.0,1.32047,103.78906,1.32056,103.7889,64,MING TECK PARK,MING TECK PARK,MING TECK PARK,N,4224,0.003669,103.7899,1.31703,False,103.7889,1.32056,6.3e-05,0.000355,2999,0.062297,False,False,False,False,0,0.00%,Low,CORRECT,Normal spatial pattern
35336,152654.0,,438146.0,S,8.0,SINGAPORE,SINGAPORE,,116162861.0,116162861.0,1.31152,103.8918,1.31155,103.89207,108,,LIM AH WOO RD,LIM AH WOO RD,N,2242,0.001045,103.8911,1.31194,False,103.89207,1.31155,0.000649,0.000782,2999,0.05126,False,False,False,False,0,0.00%,Low,CORRECT,Normal spatial pattern
85755,148384.0,,423469.0,S,9.0,SINGAPORE,SINGAPORE,,116132929.0,116132929.0,1.31281,103.90758,1.31283,103.90759,10F,,LOR J TELOK KURAU,LOR J TELOK KURAU,N,1271,0.000687,103.9081,1.31237,False,103.90759,1.31283,0.000948,0.001487,2999,0.064439,False,False,False,False,0,0.00%,Low,CORRECT,Normal spatial pattern
121192,149025.0,,389370.0,S,0.0,SINGAPORE,SINGAPORE,,116141732.0,116141732.0,1.31272,103.88004,1.31271,103.88004,349C,,GEYLANG RD,GEYLANG RD,N,4963,0.000626,103.8806,1.31243,False,103.88004,1.31271,0.000463,0.000685,2999,0.040784,False,False,False,False,0,0.00%,Low,CORRECT,Normal spatial pattern
43545,142093.0,,208279.0,S,8.0,SINGAPORE,SINGAPORE,,833602561.0,833602561.0,1.30812,103.85411,1.30794,103.85407,37,,NORRIS RD,NORRIS RD,N,1725,0.001146,103.8531,1.30855,False,103.85407,1.30794,0.000418,0.000859,2999,0.031157,False,False,False,False,0,0.00%,Low,CORRECT,Normal spatial pattern
27924,241002.0,,789903.0,S,8.0,SINGAPORE,SINGAPORE,,116148899.0,116148899.0,1.38839,103.83912,1.38826,103.83924,32,,COUNTRYSIDE PL,COUNTRYSIDE PL,N,5315,0.004502,103.83501,1.38672,False,103.83924,1.38826,3.6e-05,0.001998,2999,0.050521,False,False,False,False,5,15.00%,Low,CORRECT,Far from streets
34598,218596.0,,554800.0,S,8.0,SINGAPORE,SINGAPORE,,116161336.0,116161336.0,1.35938,103.86787,1.3594,103.86783,15,,CHUAN DR,CHUAN DR,N,2723,0.000696,103.8684,1.359,False,103.86783,1.3594,0.000958,0.000881,2999,0.028376,False,False,False,False,0,0.00%,Low,CORRECT,Normal spatial pattern
73932,207344.0,,539329.0,S,8.0,SINGAPORE,SINGAPORE,,939785887.0,939785887.0,1.35513,103.89463,1.35491,103.89457,1,BOON SENG RECYCLING,DEFU LANE 7,DEFU LANE 7,N,5580,0.004927,103.89002,1.35302,False,103.89457,1.35491,0.001767,0.002071,2999,0.048845,False,False,False,False,0,15.00%,Low,CORRECT,Far from streets
32386,176603.0,,277429.0,S,8.0,SINGAPORE,SINGAPORE,,116157281.0,116157281.0,1.32042,103.78902,1.3205,103.78888,62,MING TECK PARK,MING TECK PARK,MING TECK PARK,N,4224,0.003617,103.7899,1.31703,False,103.78888,1.3205,6.3e-05,0.000292,2999,0.062334,False,False,False,False,0,0.00%,Low,CORRECT,Normal spatial pattern
86879,234635.0,,508784.0,S,9.0,SINGAPORE,SINGAPORE,,116133672.0,116133672.0,1.37949,103.97406,1.37915,103.97427,1,UNOCCUPIED,LOYANG WALK,LOYANG WALK,N,1339,0.002197,103.9755,1.37733,False,103.97427,1.37915,0.003115,0.001698,2999,0.132118,False,True,False,False,17,20.00%,Low,CORRECT,Far from streets
119513,244537.0,,567849.0,S,9.0,SINGAPORE,SINGAPORE,,985995401.0,990778880.0,1.37734,103.8335,1.37726,103.83549,387,HORIZON GARDENS,ANG MO KIO AVE 2,ANG MO KIO AVE 2,N,5845,8.1e-05,103.8355,1.37734,False,103.83549,1.37726,0.0,0.000691,2999,0.040799,False,False,False,False,5,0.00%,Low,CORRECT,Normal spatial pattern
105939,164073.0,,309161.0,S,9.0,SINGAPORE,SINGAPORE,,901472573.0,901472572.0,1.31965,103.83888,1.31941,103.83866,42A,,GENTLE RD,GENTLE RD,N,4472,0.000704,103.8391,1.31886,False,103.83866,1.31941,0.000239,0.000275,2999,0.021579,False,False,False,False,0,0.00%,Low,CORRECT,Normal spatial pattern
49948,144543.0,,200008.0,S,8.0,SINGAPORE,SINGAPORE,,883552174.0,883552174.0,1.3072,103.8607,1.30729,103.86059,8,,FRENCH RD,FRENCH RD,Y,3680,0.000812,103.8614,1.30724,False,103.86059,1.30729,0.002248,0.000279,2999,0.033553,False,False,False,True,0,25.00%,Low,CORRECT,Normal spatial pattern
5650,146224.0,,428493.0,S,8.0,SINGAPORE,SINGAPORE,,116133054.0,116133054.0,1.30553,103.90149,1.30567,103.90141,31,,FOWLIE RD,FOWLIE RD,N,5484,0.001538,103.9017,1.30718,False,103.90141,1.30567,0.001039,0.001807,2999,0.062297,False,False,False,False,0,0.00%,Low,CORRECT,Far from streets
99626,131089.0,,49849.0,S,9.0,SINGAPORE,SINGAPORE,,833664047.0,833664047.0,1.28729,103.84938,1.28727,103.84943,61A,,BOAT QUAY,BOAT QUAY,N,439,0.001399,103.8491,1.28591,False,103.84943,1.28727,0.0,0.000932,2999,0.051338,False,False,False,False,0,0.00%,Low,CORRECT,Normal spatial pattern
40811,250054.0,,768271.0,S,8.0,SINGAPORE,SINGAPORE,,762719842.0,762719843.0,1.41726,103.8473,1.41726,103.8473,170,SHAUGHNESSY,MILTONIA CLOS,MILTONIA CLOS,N,-1,-1.0,-1.0,-1.0,True,103.8473,1.41726,3e-05,0.003519,2999,0.078669,True,True,False,False,18,60.00%,Medium,INCORRECT,Far from streets
73348,149657.0,,424558.0,S,8.0,SINGAPORE,SINGAPORE,,939779808.0,939779808.0,1.31296,103.89926,1.31285,103.89912,157,,ONAN RD,ONAN RD,N,428,0.000483,103.8989,1.31242,False,103.89912,1.31285,0.000158,0.000395,2999,0.056768,False,False,False,False,0,0.00%,Low,CORRECT,Normal spatial pattern
34123,135105.0,,248871.0,S,8.0,SINGAPORE,SINGAPORE,,116160798.0,116160798.0,1.30178,103.82498,1.30163,103.82511,21,KIM LIN PARK,LENGKOK MERAK,LENGKOK MERAK,N,1644,0.001131,103.8241,1.30112,False,103.82511,1.30163,0.000158,0.001181,2999,0.043763,False,False,False,False,0,0.00%,Low,CORRECT,Normal spatial pattern
29821,227548.0,,545155.0,S,8.0,SINGAPORE,SINGAPORE,,116155367.0,116155367.0,1.36704,103.87883,1.36718,103.87887,36,PRINCETON VALE,POH HUAT TER,POH HUAT TER,N,5581,0.001139,103.8778,1.36757,False,103.87887,1.36718,0.000746,0.000582,2999,0.041682,False,False,False,False,0,0.00%,Low,CORRECT,Normal spatial pattern
92000,229440.0,,808421.0,S,9.0,SINGAPORE,SINGAPORE,,116148592.0,116148592.0,1.38285,103.87325,1.38298,103.87333,22A,,JALAN SINDOR,JALAN SINDOR,N,701,0.003646,103.8769,1.38372,False,103.87333,1.38298,0.000423,0.000881,2999,0.05084,False,False,False,False,5,0.00%,Low,CORRECT,Normal spatial pattern
49192,217652.0,,678099.0,S,8.0,SINGAPORE,SINGAPORE,,877435629.0,877435629.0,1.36192,103.76794,1.36209,103.7673,496,METHODIST SCHOOL OF MUSIC,UPP BUKIT TIMAH RD,UPP BUKIT TIMAH RD,N,4165,0.000528,103.7668,1.36192,False,103.7673,1.36209,0.001618,0.001812,2999,0.084556,False,False,False,False,8,0.00%,Low,CORRECT,Far from streets
26662,242351.0,,806614.0,S,8.0,SINGAPORE,SINGAPORE,,116148512.0,116148512.0,1.38708,103.85678,1.38728,103.8568,17,SUNRISE VILLA,SUNRISE CLOS,SUNRISE CLOS,N,1840,0.0029,103.8543,1.38875,False,103.8568,1.38728,0.000984,0.001284,2999,0.049378,False,False,False,False,5,0.00%,Low,CORRECT,Normal spatial pattern
42487,151564.0,,208954.0,S,8.0,SINGAPORE,SINGAPORE,,796211165.0,796211165.0,1.31098,103.85867,1.31086,103.85886,291,,JALAN BESAR,JALAN BESAR,N,3548,0.000172,103.859,1.31076,False,103.85886,1.31086,0.000245,0.000722,2999,0.029602,False,False,False,False,0,0.00%,Low,CORRECT,Normal spatial pattern
54353,139603.0,,637836.0,S,8.0,SINGAPORE,SINGAPORE,,901417286.0,901417286.0,1.2933,103.62384,1.29336,103.62386,50,LEONG SIEW WENG ENGINEERING,TUAS SOUTH ST 5,TUAS SOUTH ST 5,N,4381,0.006997,103.6293,1.29776,True,103.62386,1.29336,8.5e-05,0.000636,2999,0.229178,True,True,True,False,-1,75.00%,High,INCORRECT,Spatial clustering outlier
123218,184943.0,,328844.0,S,0.0,SINGAPORE,SINGAPORE,,857274224.0,857274224.0,1.32398,103.85269,1.3242,103.85286,10A,,KIM KEAT RD,KIM KEAT RD,N,3774,0.000944,103.852,1.32459,False,103.85286,1.3242,0.0,0.001025,2999,0.015038,False,False,False,False,0,0.00%,Low,CORRECT,Normal spatial pattern
34517,181174.0,,328451.0,S,8.0,SINGAPORE,SINGAPORE,,116161289.0,116161289.0,1.32695,103.86682,1.32687,103.86671,4,,MOONSTONE LN,MOONSTONE LN,N,3718,0.001812,103.865,1.32627,False,103.86671,1.32687,0.001104,0.000522,2999,0.021637,False,False,False,False,0,0.00%,Low,CORRECT,Normal spatial pattern
100178,137982.0,,188450.0,S,9.0,SINGAPORE,SINGAPORE,,841718256.0,841718256.0,1.29924,103.8566,1.2994,103.8569,227,,ROCHOR RD,ROCHOR RD,N,3255,1e-05,103.8569,1.29939,False,103.8569,1.2994,0.000502,0.000498,2999,0.040084,False,False,False,False,0,0.00%,Low,CORRECT,Normal spatial pattern
88049,152334.0,,127395.0,S,9.0,SINGAPORE,SINGAPORE,,116139108.0,116139108.0,1.31168,103.75812,1.31173,103.75796,338C,WEST POINT PEARL GARDEN,WEST COAST RD,WEST COAST RD,N,1435,0.001089,103.7569,1.31198,False,103.75796,1.31173,0.001891,0.000524,2999,0.09447,False,False,False,False,7,0.00%,Low,CORRECT,Normal spatial pattern
49091,130261.0,,150123.0,S,8.0,SINGAPORE,SINGAPORE,,875141467.0,875141467.0,1.28668,103.80382,1.28656,103.8039,123,,BUKIT MERAH LANE 1,BUKIT MERAH LANE 1,Y,736,0.001906,103.8058,1.28641,False,103.8039,1.28656,0.000979,0.00026,2999,0.068556,False,False,False,False,0,0.00%,Low,CORRECT,Normal spatial pattern
87504,215884.0,,558552.0,S,9.0,SINGAPORE,SINGAPORE,,116136209.0,116136210.0,1.36257,103.86846,1.36242,103.86857,34,CHUAN GARDEN,CHUAN GDN,CHUAN GDN,N,2723,0.003424,103.8684,1.359,False,103.86857,1.36242,0.000502,0.001481,2999,0.03113,False,False,False,False,0,0.00%,Low,CORRECT,Normal spatial pattern
12701,166360.0,,127973.0,S,8.0,SINGAPORE,SINGAPORE,,116139120.0,116139120.0,1.31603,103.75701,1.31611,103.75715,32,HONG LEONG GARDEN,WEST COAST DR,WEST COAST DR,N,1437,0.000192,103.7573,1.31599,False,103.75715,1.31611,0.000591,0.001131,2999,0.094105,False,False,False,False,7,0.00%,Low,CORRECT,Normal spatial pattern
95733,187858.0,,289656.0,S,9.0,SINGAPORE,SINGAPORE,,116169680.0,116169680.0,1.33217,103.7952,1.33201,103.7951,772B,,DUNEARN RD,DUNEARN RD,N,-1,-1.0,-1.0,-1.0,False,103.7951,1.33201,0.001939,0.001483,2999,0.053833,False,False,False,False,0,0.00%,Low,CORRECT,Normal spatial pattern
108559,247864.0,,730545.0,S,9.0,SINGAPORE,SINGAPORE,,914305459.0,718050881.0,1.42926,103.79356,1.42887,103.79381,545,,WOODLANDS DR 16,WOODLANDS DR 16,Y,1030,0.00145,103.7938,1.42742,True,103.79381,1.42887,0.004082,0.000211,2999,0.105559,False,True,True,False,-1,50.00%,Medium,INCORRECT,Isolated from other POIs; Spatial clustering outlier
31242,218375.0,,549190.0,S,8.0,SINGAPORE,SINGAPORE,,116156543.0,116156543.0,1.35919,103.88059,1.35942,103.88045,110,,HIGHLAND RD,HIGHLAND RD,N,5570,0.00185,103.8823,1.35939,False,103.88045,1.35942,0.000248,0.001026,2999,0.038111,False,False,False,False,0,0.00%,Low,CORRECT,Normal spatial pattern
73653,147824.0,,424570.0,S,8.0,SINGAPORE,SINGAPORE,,939779860.0,939779860.0,1.31248,103.89962,1.3124,103.89946,183,,ONAN RD,ONAN RD,N,428,0.00056,103.8989,1.31242,False,103.89946,1.3124,0.000308,0.000512,2999,0.057276,False,False,False,False,0,0.00%,Low,CORRECT,Normal spatial pattern
38190,134139.0,,228410.0,S,8.0,SINGAPORE,SINGAPORE,,737847732.0,737847732.0,1.30386,103.84945,1.30386,103.84965,61,,NIVEN RD,NIVEN RD,N,3476,0.000334,103.8496,1.30419,False,103.84965,1.30386,0.00031,0.001374,2999,0.034758,False,False,False,False,0,0.00%,Low,CORRECT,Normal spatial pattern
86307,153991.0,,458920.0,S,9.0,SINGAPORE,SINGAPORE,,116133229.0,116133231.0,1.31074,103.92258,1.31078,103.92279,10,SEASIDE PARK,EAST COAST TER,EAST COAST TER,N,996,0.000502,103.9232,1.31107,False,103.92279,1.31078,0.000381,0.000664,2999,0.079302,False,False,False,False,0,0.00%,Low,CORRECT,Normal spatial pattern
9393,234390.0,,575769.0,S,8.0,SINGAPORE,SINGAPORE,,116135847.0,116135847.0,1.37837,103.83559,1.37855,103.83543,20,SERENADE GARDENS,SERENADE WALK,SERENADE WALK,N,2391,0.000691,103.8361,1.37838,False,103.83543,1.37855,0.000805,0.0,2999,0.042042,False,False,False,False,5,0.00%,Low,CORRECT,Normal spatial pattern
49772,136985.0,,238712.0,S,8.0,SINGAPORE,SINGAPORE,,881143273.0,881143273.0,1.29809,103.84277,1.298,103.84261,37,VISIONCREST RESIDENCE,OXLEY RISE,OXLEY RISE,N,4823,0.00033,103.8426,1.29767,False,103.84261,1.298,0.001036,0.000233,2999,0.041029,False,False,False,False,0,0.00%,Low,CORRECT,Normal spatial pattern
114785,230844.0,,797685.0,S,9.0,SINGAPORE,SINGAPORE,,939709005.0,116132743.0,1.38513,103.87755,1.38541,103.87767,27,,GERALD DR,GERALD DR,N,701,0.001857,103.8769,1.38372,False,103.87767,1.38541,0.0,0.001208,2999,0.05514,False,False,False,False,5,0.00%,Low,CORRECT,Normal spatial pattern
83408,238623.0,,797698.0,S,8.0,SINGAPORE,SINGAPORE,,990722311.0,990722311.0,1.39221,103.87591,1.39221,103.87579,10,FERNVALE-LRT,FERNVALE RD,FERNVALE RD,N,5819,0.00411,103.8799,1.39216,True,103.87579,1.39221,0.003625,0.00065,2999,0.060143,False,True,False,True,5,45.00%,Medium,INCORRECT,Isolated from other POIs
64985,136480.0,,437902.0,S,8.0,SINGAPORE,SINGAPORE,,924815951.0,924815951.0,1.29752,103.89059,1.29715,103.89059,76,,MEYER RD,MEYER RD,N,1311,0.001725,103.8923,1.29738,False,103.89059,1.29715,0.001261,0.002009,2999,0.059053,False,False,False,False,0,15.00%,Low,CORRECT,Far from streets
51590,197021.0,,599055.0,S,8.0,SINGAPORE,SINGAPORE,,895522213.0,895522213.0,1.33636,103.7678,1.33639,103.76801,60,,ENG KONG RD,ENG KONG RD,N,1755,0.000559,103.7675,1.33616,False,103.76801,1.33639,0.000251,0.00058,2999,0.080549,False,False,False,False,0,0.00%,Low,CORRECT,Normal spatial pattern
77309,208231.0,,558923.0,S,8.0,SINGAPORE,SINGAPORE,,940110185.0,940110185.0,1.35721,103.86634,1.35719,103.8662,57,SERANGOON GARDEN ESTATE,CARDIFF GRV,CARDIFF GRV,N,2724,0.002581,103.8683,1.35869,False,103.8662,1.35719,0.000494,0.001061,2999,0.025649,False,False,False,False,0,0.00%,Low,CORRECT,Normal spatial pattern
95371,158697.0,,388514.0,S,9.0,SINGAPORE,SINGAPORE,,116164077.0,116164077.0,1.31478,103.8791,1.31474,103.879,50,PILECON BUILDING,LOR 19 GEYLANG,LOR 19 GEYLANG,N,-1,-1.0,-1.0,-1.0,False,103.879,1.31474,0.000492,0.000983,2999,0.038702,False,False,False,False,0,0.00%,Low,CORRECT,Normal spatial pattern
95523,166594.0,,257917.0,S,9.0,SINGAPORE,SINGAPORE,,116166759.0,901337489.0,1.31665,103.82681,1.31701,103.8278,25C,,STEVENS DR,STEVENS DR,N,4471,9e-05,103.8278,1.31692,False,103.8278,1.31701,1.4e-05,0.000913,2999,0.02993,False,False,False,False,0,0.00%,Low,CORRECT,Normal spatial pattern
25942,218189.0,,574301.0,S,8.0,SINGAPORE,SINGAPORE,,116146621.0,116146621.0,1.35845,103.82813,1.35857,103.82808,14,WINDSOR PARK ESTATE,VENUS RD,VENUS RD,N,5169,0.003656,103.831,1.36077,False,103.82808,1.35857,0.001992,0.000851,2999,0.028582,False,False,False,False,0,0.00%,Low,CORRECT,Normal spatial pattern
51102,143080.0,,128737.0,S,8.0,SINGAPORE,SINGAPORE,,895446752.0,895446752.0,1.30827,103.76379,1.30809,103.76385,45,PASIR PANJANG GARDENS,JALAN MAS KUNING,JALAN MAS KUNING,N,4340,0.003779,103.7649,1.31172,False,103.76385,1.30809,0.000522,0.001245,2999,0.090007,False,False,False,False,7,0.00%,Low,CORRECT,Normal spatial pattern
69687,175735.0,,419170.0,S,8.0,SINGAPORE,SINGAPORE,,938840630.0,938840630.0,1.32169,103.90568,1.32181,103.9057,1,,JALAN KECHOT,JALAN KECHOT,N,446,0.000461,103.9053,1.32158,False,103.9057,1.32181,0.001556,0.000751,2999,0.059586,False,False,False,False,0,0.00%,Low,CORRECT,Normal spatial pattern
122618,129028.0,,59208.0,S,0.0,SINGAPORE,SINGAPORE,,833459608.0,833459608.0,1.28331,103.84448,1.28331,103.84448,49A,,PAGODA ST,PAGODA ST,N,4027,0.000569,103.8443,1.28277,False,103.84448,1.28331,1.4e-05,0.000539,2999,0.055438,False,False,False,False,0,0.00%,Low,CORRECT,Normal spatial pattern
115739,237111.0,,788355.0,S,9.0,SINGAPORE,SINGAPORE,,939884934.0,761537359.0,1.40009,103.82484,1.4003,103.82481,41,SPRINGLEAF GARDEN,SPRINGLEAF CRES,SPRINGLEAF CRES,N,5467,9.5e-05,103.8249,1.40033,False,103.82481,1.4003,0.001168,0.001985,2999,0.066102,False,False,False,False,10,15.00%,Low,CORRECT,Far from streets
84827,183521.0,,419599.0,S,9.0,SINGAPORE,SINGAPORE,,116131455.0,116131455.0,1.32539,103.90696,1.32557,103.90693,19A,,JALAN DAUD,JALAN DAUD,N,930,0.000846,103.9077,1.32522,False,103.90693,1.32557,0.000899,0.00044,2999,0.059838,False,False,False,False,0,0.00%,Low,CORRECT,Normal spatial pattern
40842,249576.0,,768302.0,S,8.0,SINGAPORE,SINGAPORE,,762719842.0,762719842.0,1.41719,103.84656,1.41814,103.84705,232,THE SHAUGHNESSY,MILTONIA CLOS,MILTONIA CLOS,N,497,7.1e-05,103.847,1.41809,True,103.84705,1.41814,0.000397,0.002712,2999,0.079554,True,True,False,False,18,60.00%,Medium,INCORRECT,Far from streets
75547,213274.0,,539971.0,S,8.0,SINGAPORE,SINGAPORE,,939905016.0,939905016.0,1.35037,103.884,1.35032,103.884,15,,AH SOO GDN,AH SOO GDN,N,3356,0.001324,103.8828,1.35088,False,103.884,1.35032,0.000506,0.0013,2999,0.037358,False,False,False,False,0,0.00%,Low,CORRECT,Normal spatial pattern
14121,184029.0,,465846.0,S,8.0,SINGAPORE,SINGAPORE,,116140171.0,116140171.0,1.32409,103.94975,1.324,103.94961,21,LIMAU VILLAS,LIMAU RISE,LIMAU RISE,N,1893,0.001521,103.9485,1.32296,False,103.94961,1.324,0.000264,0.0006,2999,0.102131,False,False,False,False,0,0.00%,Low,CORRECT,Normal spatial pattern
104904,170885.0,,599556.0,S,9.0,SINGAPORE,SINGAPORE,,895606058.0,895605709.0,1.32307,103.77339,1.32293,103.77359,42,CLEMENTI GREEN,CLEMENTI CRES,CLEMENTI CRES,N,796,0.001036,103.7737,1.32396,True,103.77359,1.32293,0.004194,0.000389,2999,0.076559,False,True,False,True,0,45.00%,Medium,INCORRECT,Isolated from other POIs
26694,243464.0,,806648.0,S,8.0,SINGAPORE,SINGAPORE,,116148512.0,116148512.0,1.38734,103.85571,1.38719,103.85577,58,SUNRISE VILLA,SUNRISE CLOS,SUNRISE CLOS,N,1840,0.002143,103.8543,1.38875,False,103.85577,1.38719,5e-05,0.001942,2999,0.049126,False,False,False,False,5,0.00%,Low,CORRECT,Far from streets
98296,136925.0,,188758.0,S,9.0,SINGAPORE,SINGAPORE,,778481589.0,778481589.0,1.2994,103.8565,1.29944,103.8564,552,,NORTH BRIDGE RD,NORTH BRIDGE RD,N,-1,-1.0,-1.0,-1.0,False,103.8564,1.29944,0.000502,0.000398,2999,0.039944,False,False,False,False,0,0.00%,Low,CORRECT,Normal spatial pattern
43284,163363.0,,458026.0,S,8.0,SINGAPORE,SINGAPORE,,833551240.0,833551240.0,1.31894,103.91397,1.31878,103.91406,28,FRANKEL ESTATE,FRANKEL TER,FRANKEL TER,N,3151,0.001148,103.913,1.31922,False,103.91406,1.31878,0.001138,0.000753,2999,0.068464,False,False,False,False,0,0.00%,Low,CORRECT,Normal spatial pattern
90924,169855.0,,277017.0,S,9.0,SINGAPORE,SINGAPORE,,116144536.0,881262350.0,1.31657,103.7855,1.31618,103.7852,37,,MOUNT SINAI LN,MOUNT SINAI LN,N,1682,0.000824,103.7848,1.31546,False,103.7852,1.31618,0.001959,0.001354,2999,0.06718,False,False,False,False,0,0.00%,Low,CORRECT,Normal spatial pattern
52615,135539.0,,637769.0,S,8.0,SINGAPORE,SINGAPORE,,897330045.0,897330045.0,1.30149,103.62899,1.30127,103.6287,44,HS (2ND LINK) INDUSTRIAL BUILDING,TUAS VIEW SQ,TUAS VIEW SQ,N,2270,0.001374,103.6282,1.29999,True,103.6287,1.30127,0.00199,6.3e-05,2999,0.222975,True,True,False,False,19,45.00%,Medium,INCORRECT,Normal spatial pattern
99035,135122.0,,188781.0,S,9.0,SINGAPORE,SINGAPORE,,824081851.0,862314342.0,1.30038,103.8573,1.30045,103.8572,606,,NORTH BRIDGE RD,NORTH BRIDGE RD,N,3267,8e-05,103.8572,1.30037,False,103.8572,1.30045,0.000417,0.000545,2999,0.039123,False,False,False,False,0,0.00%,Low,CORRECT,Normal spatial pattern
121946,129581.0,,59213.0,S,0.0,SINGAPORE,SINGAPORE,,116166303.0,116166303.0,1.28349,103.84419,1.28367,103.84384,54B,,PAGODA ST,PAGODA ST,N,3120,0.000572,103.8441,1.28418,False,103.84384,1.28367,0.000631,0.000823,2999,0.05513,False,False,False,False,0,0.00%,Low,CORRECT,Normal spatial pattern
21411,174764.0,,309274.0,S,8.0,SINGAPORE,SINGAPORE,,116143205.0,116143205.0,1.32124,103.84038,1.32136,103.84029,71,GENTLE VILLAS,GENTLE DR,GENTLE DR,N,812,0.000946,103.8395,1.32188,False,103.84029,1.32136,0.001802,0.0009,2999,0.019107,False,False,False,False,0,0.00%,Low,CORRECT,Normal spatial pattern
63549,203152.0,,358035.0,S,8.0,SINGAPORE,SINGAPORE,,924678340.0,924678340.0,1.3468,103.86723,1.34659,103.86733,250,SERANGOON PARK,WOLSKEL RD,WOLSKEL RD,N,4976,0.00085,103.8667,1.34602,False,103.86733,1.34659,0.000338,0.000801,2999,0.020429,False,False,False,False,0,0.00%,Low,CORRECT,Normal spatial pattern
77678,215955.0,,559756.0,S,8.0,SINGAPORE,SINGAPORE,,940110789.0,940110789.0,1.36295,103.86193,1.36306,103.86208,61,SERANGOON GARDEN ESTATE,BLOXHOME DR,BLOXHOME DR,N,971,0.000813,103.86227,1.36385,False,103.86208,1.36306,9.2e-05,0.001449,2999,0.027963,False,False,False,False,0,0.00%,Low,CORRECT,Normal spatial pattern
36275,176543.0,,307518.0,S,8.0,SINGAPORE,SINGAPORE,,116167874.0,116167874.0,1.32016,103.83129,1.31997,103.83105,6,,SWISS COTTAGE ESTE,SWISS COTTAGE ESTE,N,3808,0.001355,103.8297,1.31985,False,103.83105,1.31997,0.001638,2.2e-05,2999,0.025546,False,False,False,False,0,0.00%,Low,CORRECT,Normal spatial pattern
96694,217711.0,,650360.0,S,9.0,SINGAPORE,SINGAPORE,,718223342.0,718223338.0,1.36108,103.7506,1.36089,103.75069,360,,BUKIT BATOK ST 31,BUKIT BATOK ST 31,Y,5747,0.001374,103.7516,1.35986,True,103.75069,1.36089,0.002134,0.000641,2999,0.100345,False,False,True,True,-1,55.00%,Medium,INCORRECT,Spatial clustering outlier
69817,182069.0,,418342.0,S,8.0,SINGAPORE,SINGAPORE,,938941088.0,938941088.0,1.32498,103.91603,1.32502,103.91629,51,,JALAN SENANG,JALAN SENANG,N,1542,0.001784,103.918,1.32451,False,103.91629,1.32502,0.000952,0.001351,2999,0.069109,False,False,False,False,0,0.00%,Low,CORRECT,Normal spatial pattern
112984,225309.0,,530851.0,S,9.0,SINGAPORE,SINGAPORE,,929542144.0,762522054.0,1.37016,103.89362,1.37004,103.89383,851,,HOUGANG CENTRAL,HOUGANG CENTRAL,Y,5485,0.000842,103.8931,1.36962,False,103.89383,1.37004,0.001455,9.5e-05,2999,0.055143,False,False,False,False,0,0.00%,Low,CORRECT,Normal spatial pattern
66180,234080.0,,518384.0,S,8.0,SINGAPORE,SINGAPORE,,925002338.0,925002338.0,1.37913,103.94509,1.37898,103.9452,35,THE RIVERINA,RIVERINA VW,RIVERINA VW,N,4932,0.003484,103.9466,1.38217,False,103.9452,1.37898,0.000277,0.001033,2999,0.104766,False,False,False,False,12,0.00%,Low,CORRECT,Normal spatial pattern
82221,247419.0,,759212.0,S,8.0,SINGAPORE,SINGAPORE,,944994741.0,944994741.0,1.42811,103.82517,1.42827,103.82525,23,SEMBAWANG PARK,JALAN LENGKOK SEMBAWANG,JALAN LENGKOK SEMBAWANG,N,607,0.00135,103.8266,1.42829,False,103.82525,1.42827,0.000506,0.001576,2999,0.092642,False,False,False,False,1,0.00%,Low,CORRECT,Normal spatial pattern
35742,214064.0,,539212.0,S,8.0,SINGAPORE,SINGAPORE,,116164615.0,116164615.0,1.35167,103.892,1.35137,103.89186,31,DEFU IND ESTATE PARK A,DEFU LANE 10,DEFU LANE 10,Y,5580,0.002471,103.89002,1.35302,False,103.89186,1.35137,0.0014,0.000403,2999,0.045174,False,False,False,True,0,25.00%,Low,CORRECT,Normal spatial pattern
120736,142819.0,,424069.0,S,0.0,SINGAPORE,SINGAPORE,,116133004.0,116133004.0,1.30822,103.90709,1.30817,103.90712,6B,,STANGEE PL,STANGEE PL,N,260,0.000106,103.9072,1.30824,False,103.90712,1.30817,5.8e-05,0.00052,2999,0.066023,False,False,False,False,0,0.00%,Low,CORRECT,Normal spatial pattern
116299,237053.0,,820642.0,S,9.0,SINGAPORE,SINGAPORE,,940004136.0,916030567.0,1.39872,103.91636,1.39836,103.91688,642,MULTI STOREY CAR PARK,PUNGGOL DR,PUNGGOL DR,Y,164,0.004216,103.9145,1.39488,True,103.91688,1.39836,5.8e-05,0.000496,2999,0.090792,False,False,True,True,-1,55.00%,Medium,INCORRECT,Spatial clustering outlier
66991,215356.0,,577006.0,S,8.0,SINGAPORE,SINGAPORE,,925533070.0,925533070.0,1.36244,103.82921,1.36262,103.82919,40,FABER GARDEN,JALAN REBANA,JALAN REBANA,N,5169,0.002588,103.831,1.36077,False,103.82919,1.36262,0.000268,0.000538,2999,0.030837,False,False,False,True,0,25.00%,Low,CORRECT,Normal spatial pattern
116386,241301.0,,688749.0,S,9.0,SINGAPORE,SINGAPORE,,940006946.0,940006945.0,1.38996,103.75101,1.38971,103.75101,184,VILLA VERDE,VERDE VW,VERDE VW,N,3480,0.004674,103.7555,1.38841,False,103.75101,1.38971,0.000184,0.00087,2999,0.1101,False,False,False,False,20,0.00%,Low,CORRECT,Normal spatial pattern
113080,237857.0,,684690.0,S,9.0,SINGAPORE,SINGAPORE,,929870150.0,929870150.0,1.40223,103.75206,1.40241,103.75183,690D,,CHOA CHU KANG CRES,CHOA CHU KANG CRES,Y,5252,0.003309,103.7495,1.40006,False,103.75183,1.40241,0.002637,0.000186,2999,0.115854,False,False,False,False,20,0.00%,Low,CORRECT,Normal spatial pattern
64689,194761.0,,368053.0,S,8.0,SINGAPORE,SINGAPORE,,924779116.0,924779116.0,1.341,103.87991,1.34075,103.88008,28,,MOUNT VERNON RD,MOUNT VERNON RD,N,5087,0.000362,103.8798,1.34052,True,103.88008,1.34075,0.003091,0.001325,2999,0.031625,False,True,False,True,0,45.00%,Medium,INCORRECT,Normal spatial pattern
1657,186624.0,,368646.0,S,8.0,SINGAPORE,SINGAPORE,,116131108.0,116131108.0,1.33305,103.88009,1.33292,103.88014,49,MACPHERSON GARDEN ESTATE,JALAN MULIA,JALAN MULIA,N,1132,0.001,103.881,1.33241,False,103.88014,1.33292,0.000362,0.000791,2999,0.032118,False,False,False,False,0,0.00%,Low,CORRECT,Normal spatial pattern
25893,213983.0,,575268.0,S,8.0,SINGAPORE,SINGAPORE,,116146556.0,116146556.0,1.35065,103.83497,1.35051,103.83507,145,YEW LIAN PARK,TAMAN PERMATA,TAMAN PERMATA,N,4974,0.000785,103.8358,1.3508,False,103.83507,1.35051,0.000103,0.000608,2999,0.017971,False,False,False,False,0,0.00%,Low,CORRECT,Normal spatial pattern
113235,246891.0,,738688.0,S,9.0,SINGAPORE,SINGAPORE,,931050296.0,931050296.0,1.4254,103.7604,1.42483,103.7607,961,,WOODLANDS RD,WOODLANDS RD,N,-1,-1.0,-1.0,-1.0,True,103.7607,1.42483,0.007349,0.000292,2999,0.123083,True,True,True,False,-1,95.00%,Very High,INCORRECT,Isolated from other POIs; Spatial clustering outlier
90320,147592.0,,258416.0,S,9.0,SINGAPORE,SINGAPORE,,116142754.0,116142754.0,1.31241,103.82238,1.31239,103.8224,32J,,NASSIM RD,NASSIM RD,N,2172,0.000355,103.8227,1.31258,False,103.8224,1.31239,0.000355,0.000348,2999,0.037009,False,False,False,False,0,0.00%,Low,CORRECT,Normal spatial pattern
49473,143430.0,,130012.0,S,8.0,SINGAPORE,SINGAPORE,,878160030.0,878160030.0,1.30503,103.78581,1.30518,103.78538,12,,DOVER CLOS E,DOVER CLOS E,Y,2547,0.00038,103.7856,1.30487,False,103.78538,1.30518,0.002202,0.000114,2999,0.071447,False,False,False,True,21,25.00%,Low,CORRECT,Normal spatial pattern
118880,175298.0,,269305.0,S,9.0,SINGAPORE,SINGAPORE,,943637131.0,943637131.0,1.32137,103.7962,1.32137,103.7962,92,,CORONATION RD W,CORONATION RD W,N,-1,-1.0,-1.0,-1.0,False,103.7962,1.32137,0.000443,0.000114,2999,0.055092,False,False,False,False,0,0.00%,Low,CORRECT,Normal spatial pattern
24883,219696.0,,668626.0,S,8.0,SINGAPORE,SINGAPORE,,116146165.0,116146165.0,1.36034,103.76152,1.36046,103.76165,37,HILLVIEW ESTATE,JALAN ZAMRUD,JALAN ZAMRUD,N,4917,0.001451,103.7631,1.36052,False,103.76165,1.36046,0.00099,0.002037,2999,0.089586,False,False,False,False,8,15.00%,Low,CORRECT,Far from streets
89116,194079.0,,588003.0,S,9.0,SINGAPORE,SINGAPORE,,116141026.0,859676678.0,1.3407,103.78358,1.34062,103.78387,31A,,YARWOOD AVE,YARWOOD AVE,N,3749,0.003182,103.7835,1.33746,False,103.78387,1.34062,0.001619,0.00097,2999,0.06469,False,False,False,False,0,0.00%,Low,CORRECT,Normal spatial pattern
51644,186241.0,,599307.0,S,8.0,SINGAPORE,SINGAPORE,,895523726.0,895523726.0,1.33365,103.76754,1.33346,103.76761,218,ENG KONG PARK,ENG KONG GDN,ENG KONG GDN,N,1753,0.000276,103.7678,1.33366,False,103.76761,1.33346,0.000522,0.001358,2999,0.081081,False,False,False,False,0,0.00%,Low,CORRECT,Normal spatial pattern
33009,157153.0,,268856.0,S,8.0,SINGAPORE,SINGAPORE,,116157879.0,116157879.0,1.3158,103.80786,1.31589,103.80792,82,GALLOP GABLES,FARRER RD,FARRER RD,N,1597,0.003299,103.8108,1.3175,False,103.80792,1.31589,0.001786,0.001171,2999,0.046527,False,False,False,False,0,0.00%,Low,CORRECT,Normal spatial pattern
53770,131944.0,,149010.0,S,8.0,SINGAPORE,SINGAPORE,,900972750.0,900972750.0,1.2908,103.80542,1.29078,103.80544,18,SHEPHERD'S HILL ESTATE,SHEPHERD'S DR,SHEPHERD'S DR,N,4330,0.001497,103.804,1.29119,False,103.80544,1.29078,0.001934,0.001254,2999,0.064369,False,False,False,False,0,0.00%,Low,CORRECT,Normal spatial pattern
78206,226718.0,,559340.0,S,8.0,SINGAPORE,SINGAPORE,,940183136.0,940183136.0,1.36725,103.86433,1.36714,103.86424,50,SERANGOON GARDEN ESTATE,BRIDPORT AVE,BRIDPORT AVE,N,992,0.003629,103.86159,1.36466,False,103.86424,1.36714,0.000545,0.001651,2999,0.032579,False,False,False,False,0,0.00%,Low,CORRECT,Far from streets
30475,215950.0,,534766.0,S,8.0,SINGAPORE,SINGAPORE,,116156044.0,116156044.0,1.36294,103.88847,1.36308,103.88837,1028,TAI PENG GARDENS,UPP SERANGOON RD,UPP SERANGOON RD,N,1999,0.00257,103.8859,1.36379,False,103.88837,1.36308,0.000877,0.000931,2999,0.046761,False,False,False,False,0,0.00%,Low,CORRECT,Normal spatial pattern
26841,230259.0,,809133.0,S,8.0,SINGAPORE,SINGAPORE,,116148541.0,116148541.0,1.38421,103.86973,1.3842,103.86978,19,SELETAR HILLS ESTATE,JALAN JITONG,JALAN JITONG,N,1842,0.002615,103.8695,1.3816,False,103.86978,1.3842,1.4e-05,0.000963,2999,0.050309,False,False,False,False,5,0.00%,Low,CORRECT,Normal spatial pattern
81650,205958.0,,587875.0,S,8.0,SINGAPORE,SINGAPORE,,940709704.0,940709704.0,1.34403,103.78873,1.3441,103.7888,135,BINJAI CREST,JALAN KG CHANTEK,JALAN KG CHANTEK,N,4350,0.00037,103.7888,1.34447,False,103.7888,1.3441,0.0,0.001121,2999,0.059981,False,False,False,False,0,0.00%,Low,CORRECT,Normal spatial pattern
7864,249500.0,,739822.0,S,8.0,SINGAPORE,SINGAPORE,,116134931.0,116134931.0,1.41536,103.7576,1.41553,103.75779,5,WOODLANDS PARK,JALAN DINDING,JALAN DINDING,N,1389,0.000614,103.7573,1.4159,False,103.75779,1.41553,0.000184,0.000461,2999,0.118961,False,False,False,False,22,0.00%,Low,CORRECT,Normal spatial pattern
79681,210433.0,,578055.0,S,8.0,SINGAPORE,SINGAPORE,,940419512.0,940419512.0,1.35464,103.83503,1.35471,103.83494,26,THOMSON PARK,JALAN IKAN MERAH,JALAN IKAN MERAH,N,5592,0.000741,103.8342,1.35467,False,103.83494,1.35471,0.001462,0.001108,2999,0.021075,False,False,False,False,0,0.00%,Low,CORRECT,Normal spatial pattern
82171,247200.0,,758639.0,S,8.0,SINGAPORE,SINGAPORE,,944992666.0,944992666.0,1.42734,103.82588,1.4275,103.82589,50,PLATINA GARDENS,PLATINA RD,PLATINA RD,N,607,0.001062,103.8266,1.42829,False,103.82589,1.4275,0.000922,0.000939,2999,0.091737,False,False,False,False,1,0.00%,Low,CORRECT,Normal spatial pattern
106550,190262.0,,287180.0,S,9.0,SINGAPORE,SINGAPORE,,902103625.0,902103625.0,1.33098,103.80954,1.33105,103.80953,48A,,WATTEN VW,WATTEN VW,N,1550,0.000873,103.8102,1.33049,False,103.80953,1.33105,0.000931,0.000321,2999,0.039722,False,False,False,False,0,0.00%,Low,CORRECT,Normal spatial pattern
103844,199431.0,,598298.0,S,9.0,SINGAPORE,SINGAPORE,,883731727.0,883731727.0,1.33482,103.7789,1.33485,103.77862,17A,KING ALBERT PARK,KING ALBERT PARK,KING ALBERT PARK,N,4356,0.001771,103.7798,1.33353,True,103.77862,1.33485,0.002884,0.00103,2999,0.070009,False,True,False,True,0,45.00%,Medium,INCORRECT,Normal spatial pattern
102481,137275.0,,180261.0,S,9.0,SINGAPORE,SINGAPORE,,865098202.0,858760012.0,1.29885,103.85194,1.29853,103.85134,261,WATERLOO CENTRE,WATERLOO ST,WATERLOO ST,Y,3733,5e-05,103.8513,1.2985,False,103.85134,1.29853,0.000114,0.000717,2999,0.040169,False,False,False,False,0,0.00%,Low,CORRECT,Normal spatial pattern
5710,145539.0,,438859.0,S,8.0,SINGAPORE,SINGAPORE,,116133063.0,116133063.0,1.30775,103.89942,1.30793,103.89931,4,EIS RESIDENCES,HAIG AVE,HAIG AVE,N,5262,0.001183,103.9001,1.30705,False,103.89931,1.30793,0.000682,0.001695,2999,0.059325,False,False,False,False,0,0.00%,Low,CORRECT,Far from streets
116466,239565.0,,544186.0,S,9.0,SINGAPORE,SINGAPORE,,940011733.0,940011733.0,1.39327,103.90529,1.39356,103.90527,186D,,RIVERVALE DR,RIVERVALE DR,Y,4953,0.003173,103.9059,1.39667,False,103.90527,1.39356,0.002188,0.000362,2999,0.078995,False,False,False,False,23,0.00%,Low,CORRECT,Normal spatial pattern
120034,166984.0,,455000.0,S,9.0,SINGAPORE,SINGAPORE,,1025151125.0,1025151125.0,1.31689,103.92222,1.31697,103.92244,89A,,SIGLAP RD,SIGLAP RD,N,5941,0.000184,103.9224,1.31715,False,103.92244,1.31697,0.001265,0.001902,2999,0.077012,False,False,False,False,0,0.00%,Low,CORRECT,Far from streets
55145,154097.0,,276381.0,S,8.0,SINGAPORE,SINGAPORE,,901923094.0,901923094.0,1.31032,103.79796,1.31014,103.79803,54,,TAMAN WARNA,TAMAN WARNA,N,1607,0.001361,103.7982,1.31149,False,103.79803,1.31014,0.000969,0.00019,2999,0.057966,False,False,False,False,0,0.00%,Low,CORRECT,Normal spatial pattern
857,228563.0,,537233.0,S,8.0,SINGAPORE,SINGAPORE,,116130235.0,116130235.0,1.36434,103.90759,1.3644,103.90747,1,,JALAN TERAP,JALAN TERAP,N,1078,0.000133,103.9075,1.36453,True,103.90747,1.3644,0.008606,0.001946,2999,0.064341,True,True,True,True,-1,120.00%,Very High,INCORRECT,Far from streets; Isolated from other POIs; Spatial clustering outlier
24148,193451.0,,598868.0,S,8.0,SINGAPORE,SINGAPORE,,116145713.0,116145713.0,1.34113,103.76643,1.34094,103.76645,101,HIGHGATE CONDOMINIUM,HIGHGATE CRES,HIGHGATE CRES,N,1977,0.002754,103.7692,1.34109,False,103.76645,1.34094,0.000688,0.000877,2999,0.082112,False,False,False,False,0,0.00%,Low,CORRECT,Normal spatial pattern
23026,143354.0,,218061.0,S,8.0,SINGAPORE,SINGAPORE,,116145006.0,116145006.0,1.30851,103.85329,1.30854,103.85317,184,,SERANGOON RD,SERANGOON RD,N,1725,7.1e-05,103.8531,1.30855,False,103.85317,1.30854,3.6e-05,0.000438,2999,0.030416,False,False,False,False,0,0.00%,Low,CORRECT,Normal spatial pattern
30093,210293.0,,547792.0,S,8.0,SINGAPORE,SINGAPORE,,116155634.0,116155634.0,1.35501,103.87596,1.35498,103.87593,30,,LIM TUA TOW RD,LIM TUA TOW RD,N,3944,0.001077,103.877,1.3551,False,103.87593,1.35498,0.000696,0.001335,2999,0.031924,False,False,False,False,0,0.00%,Low,CORRECT,Normal spatial pattern
14516,164133.0,,467100.0,S,8.0,SINGAPORE,SINGAPORE,,116140260.0,116140260.0,1.31912,103.93839,1.31895,103.93836,101,KATONG SEAVIEW PALACE,SENNETT AVE,SENNETT AVE,N,5185,0.001311,103.9384,1.31764,False,103.93836,1.31895,0.000523,0.000639,2999,0.091956,False,False,False,False,0,0.00%,Low,CORRECT,Normal spatial pattern
83243,235067.0,,576223.0,S,8.0,SINGAPORE,SINGAPORE,,983657040.0,983657040.0,1.37444,103.82672,1.37443,103.82657,30,SEMBAWANG HILLS ESTATE,OLD UPP THOMSON RD,OLD UPP THOMSON RD,N,5342,0.001573,103.8263,1.37598,False,103.82657,1.37443,0.001033,0.000843,2999,0.042023,False,False,False,False,5,0.00%,Low,CORRECT,Normal spatial pattern
52046,202976.0,,288014.0,S,8.0,SINGAPORE,SINGAPORE,,895529116.0,895529116.0,1.34713,103.79002,1.34723,103.78985,8,LA SUISSE,SWISS VW,SWISS VW,N,4348,0.001577,103.7883,1.34694,False,103.78985,1.34723,0.00193,0.001315,2999,0.059309,False,False,False,False,0,0.00%,Low,CORRECT,Normal spatial pattern
72769,213578.0,,575168.0,S,8.0,SINGAPORE,SINGAPORE,,939384901.0,939384901.0,1.35106,103.83379,1.3512,103.83376,45,YEW LIAN PARK,TAMAN PERMATA,TAMAN PERMATA,N,900,0.001834,103.8346,1.35283,False,103.83376,1.3512,0.000581,0.000911,2999,0.019413,False,False,False,False,0,0.00%,Low,CORRECT,Normal spatial pattern
91674,226460.0,,678599.0,S,9.0,SINGAPORE,SINGAPORE,,116146404.0,873049594.0,1.36775,103.76928,1.36743,103.76978,10,CHESTNUT VILLE,JALAN PAKIS,JALAN PAKIS,N,4112,0.000241,103.7698,1.36767,False,103.76978,1.36743,0.000981,0.001203,2999,0.08386,False,False,False,False,8,0.00%,Low,CORRECT,Normal spatial pattern
20714,151645.0,,258025.0,S,8.0,SINGAPORE,SINGAPORE,,116142815.0,116142815.0,1.31102,103.80595,1.31092,103.80591,21,SOMMERVILLE PARK,SOMMERVILLE ESTATE RD,SOMMERVILLE ESTATE RD,N,2043,0.001632,103.8052,1.30945,False,103.80591,1.31092,0.000868,0.000872,2999,0.050818,False,False,False,False,0,0.00%,Low,CORRECT,Normal spatial pattern
104303,156279.0,,276946.0,S,9.0,SINGAPORE,SINGAPORE,,895303325.0,895303330.0,1.31572,103.77823,1.31608,103.77985,21M,,MOUNT SINAI RISE,MOUNT SINAI RISE,N,4327,0.001709,103.7783,1.31536,False,103.77985,1.31608,0.0004,0.001123,2999,0.072276,False,False,False,False,0,0.00%,Low,CORRECT,Normal spatial pattern
805,200560.0,,589333.0,S,7.0,SINGAPORE,SINGAPORE,,985548967.0,983047348.0,1.34806,103.7763,1.3474,103.7762,177,,HINDHEDE DR,HINDHEDE DR,N,-1,-1.0,-1.0,-1.0,True,103.7762,1.3474,0.004135,0.000493,2999,0.072862,False,True,False,True,0,45.00%,Medium,INCORRECT,Isolated from other POIs
83122,224709.0,,557639.0,S,8.0,SINGAPORE,SINGAPORE,,979873324.0,979873324.0,1.36838,103.86453,1.36842,103.86457,69,,HUDDINGTON AVE,HUDDINGTON AVE,N,2179,0.004351,103.8689,1.36885,False,103.86457,1.36842,0.000567,0.00136,2999,0.033861,False,False,False,False,0,0.00%,Low,CORRECT,Normal spatial pattern
80548,237998.0,,798345.0,S,8.0,SINGAPORE,SINGAPORE,,940501056.0,940501056.0,1.40247,103.86993,1.40233,103.8699,60,,REGENT ST,REGENT ST,N,5626,0.000528,103.8694,1.4025,False,103.8699,1.40233,0.002249,0.001569,2999,0.067218,False,False,False,False,24,0.00%,Low,CORRECT,Normal spatial pattern
78299,226615.0,,558066.0,S,8.0,SINGAPORE,SINGAPORE,,940183977.0,940183977.0,1.36779,103.86417,1.3679,103.86432,65,SERANGOON GARDEN ESTATE,COWDRAY AVE,COWDRAY AVE,N,992,0.004237,103.86159,1.36466,False,103.86432,1.3679,0.000577,0.00123,2999,0.033284,False,False,False,False,0,0.00%,Low,CORRECT,Normal spatial pattern
85165,172245.0,,639087.0,S,9.0,SINGAPORE,SINGAPORE,,116132063.0,116132063.0,1.32355,103.6434,1.32355,103.6434,24,,TUAS AVE 11,TUAS AVE 11,N,-1,-1.0,-1.0,-1.0,True,103.6434,1.32355,0.002808,0.004508,2999,0.20568,True,True,False,False,25,60.00%,Medium,INCORRECT,Far from streets
35761,205608.0,,538502.0,S,8.0,SINGAPORE,SINGAPORE,,116164642.0,116164642.0,1.34559,103.88077,1.34536,103.88119,35,TOWNHOUSE CONDOMINIUM,HOW SUN RD,HOW SUN RD,N,5080,0.001391,103.8798,1.3453,False,103.88119,1.34536,0.000389,0.000818,2999,0.033354,False,False,False,False,0,0.00%,Low,CORRECT,Normal spatial pattern
105529,181741.0,,321021.0,S,9.0,SINGAPORE,SINGAPORE,,901116097.0,901116098.0,1.32478,103.86217,1.32496,103.86226,21,ST. GEORGE'S EAST GARDEN,ST GEORGE'S RD,ST GEORGE'S RD,Y,2201,0.000602,103.8617,1.32474,False,103.86226,1.32496,0.000882,0.000487,2999,0.019355,False,False,False,False,0,0.00%,Low,CORRECT,Normal spatial pattern
107548,192776.0,,417859.0,S,9.0,SINGAPORE,SINGAPORE,,910445312.0,910445315.0,1.33916,103.89786,1.33902,103.89804,43,BEE HONG,KAKI BUKIT RD 2,KAKI BUKIT RD 2,N,1129,0.001931,103.8967,1.34041,False,103.89804,1.33902,0.000189,0.000695,2999,0.049514,False,False,False,False,0,0.00%,Low,CORRECT,Normal spatial pattern
51982,200641.0,,589384.0,S,8.0,SINGAPORE,SINGAPORE,,895528979.0,895528979.0,1.34816,103.78796,1.34818,103.78817,23,GREEN BANK PARK,GREENBANK PARK,GREENBANK PARK,N,4348,0.001247,103.7883,1.34694,False,103.78817,1.34818,0.00193,0.001451,2999,0.061114,False,False,False,True,0,25.00%,Low,CORRECT,Normal spatial pattern
14223,168485.0,,467590.0,S,8.0,SINGAPORE,SINGAPORE,,116140220.0,116140220.0,1.31736,103.94064,1.31741,103.94061,36,KATONG SEAVIEW PALACE,LUCKY HTS,LUCKY HTS,N,1517,0.000837,103.9402,1.31814,False,103.94061,1.31741,0.000728,0.001268,2999,0.094489,False,False,False,False,0,0.00%,Low,CORRECT,Normal spatial pattern
114893,235068.0,,530402.0,S,9.0,SINGAPORE,SINGAPORE,,939770557.0,939770543.0,1.37444,103.89668,1.37464,103.89677,402,,HOUGANG AVE 10,HOUGANG AVE 10,Y,5396,0.001357,103.8981,1.37437,False,103.89677,1.37464,0.000926,0.000386,2999,0.060217,False,False,False,True,0,25.00%,Low,CORRECT,Normal spatial pattern
35218,145522.0,,429931.0,S,8.0,SINGAPORE,SINGAPORE,,116162675.0,116162675.0,1.30774,103.90224,1.30762,103.90212,193,,CARPMAEL RD,CARPMAEL RD,N,5484,0.000608,103.9017,1.30718,False,103.90212,1.30762,0.001041,0.001726,2999,0.061902,False,False,False,False,0,0.00%,Low,CORRECT,Far from streets
67136,193373.0,,310122.0,S,8.0,SINGAPORE,SINGAPORE,,925947578.0,925947578.0,1.3398,103.84629,1.33981,103.84608,122,,LOR 2 TOA PAYOH,LOR 2 TOA PAYOH,Y,5601,0.000816,103.8467,1.34034,False,103.84608,1.33981,0.00121,0.000685,2999,0.002731,False,False,False,False,26,0.00%,Low,CORRECT,Normal spatial pattern
22712,176385.0,,129106.0,S,8.0,SINGAPORE,SINGAPORE,,116144913.0,116144913.0,1.3204,103.75988,1.32021,103.75972,16,FABER HILLS,FABER PARK,FABER PARK,N,5835,0.002446,103.7611,1.32223,False,103.75972,1.32021,0.000443,0.000776,2999,0.090692,False,False,False,False,7,0.00%,Low,CORRECT,Normal spatial pattern
40293,124870.0,,109919.0,S,8.0,SINGAPORE,SINGAPORE,,761885653.0,761885653.0,1.2666,103.80939,1.26684,103.80909,20,,BUKIT CHERMIN RD,BUKIT CHERMIN RD,N,1429,0.006338,103.8147,1.26979,True,103.80909,1.26684,0.005139,0.001155,2999,0.081883,True,True,True,False,-1,95.00%,Very High,INCORRECT,Isolated from other POIs; Spatial clustering outlier
112675,169755.0,,466930.0,S,9.0,SINGAPORE,SINGAPORE,,926292151.0,926292151.0,1.31635,103.93687,1.31663,103.93684,37A,EAST COAST HILL,SENNETT LN,SENNETT LN,N,1513,0.001032,103.9377,1.3172,False,103.93684,1.31663,0.000143,0.000233,2999,0.091004,False,False,False,False,0,0.00%,Low,CORRECT,Normal spatial pattern
54803,170804.0,,279536.0,S,8.0,SINGAPORE,SINGAPORE,,901896762.0,901896762.0,1.32303,103.78584,1.3228,103.78599,23,BAN GUAN PARK,GREENLEAF DR,GREENLEAF DR,N,4331,0.004642,103.7825,1.32586,False,103.78599,1.3228,0.000599,0.00061,2999,0.064503,False,False,False,False,0,0.00%,Low,CORRECT,Normal spatial pattern
105342,139679.0,,129956.0,S,9.0,SINGAPORE,SINGAPORE,,897723693.0,870303512.0,1.3081,103.76982,1.30782,103.76984,41,NAN HUA HIGH SCHOOL,CLEMENTI AVE 1,CLEMENTI AVE 1,N,4107,0.001288,103.7688,1.30706,True,103.76984,1.30782,0.00565,0.000602,2999,0.084494,True,True,False,False,7,65.00%,High,INCORRECT,Isolated from other POIs
38373,126418.0,,78989.0,S,8.0,SINGAPORE,SINGAPORE,,743698485.0,743698485.0,1.27812,103.84417,1.27811,103.84438,50,,TRAS ST,TRAS ST,N,297,0.000589,103.8438,1.27821,False,103.84438,1.27811,0.00066,0.001341,2999,0.060632,False,False,False,False,0,0.00%,Low,CORRECT,Normal spatial pattern
26803,231127.0,,808670.0,S,8.0,SINGAPORE,SINGAPORE,,116148536.0,116148536.0,1.38467,103.8693,1.38466,103.86935,25,SELETAR HILLS ESTATE,JALAN PERADUN,JALAN PERADUN,N,1049,0.002274,103.8681,1.38656,False,103.86935,1.38466,0.00063,0.001164,2999,0.050548,False,False,False,False,5,0.00%,Low,CORRECT,Normal spatial pattern
29901,220968.0,,576480.0,S,8.0,SINGAPORE,SINGAPORE,,116155404.0,116155404.0,1.35857,103.82622,1.35848,103.82609,10,WINDSOR PARK,LEO DR,LEO DR,N,2689,0.002643,103.8241,1.35674,False,103.82609,1.35848,0.000801,0.001545,2999,0.029978,False,False,False,False,0,0.00%,Low,CORRECT,Normal spatial pattern
55335,163994.0,,458508.0,S,8.0,SINGAPORE,SINGAPORE,,901972046.0,901972046.0,1.31934,103.92139,1.31934,103.92134,126,OPERA ESTATE,FIDELIO ST,FIDELIO ST,N,4450,0.000495,103.921,1.31898,False,103.92134,1.31934,0.000863,0.000112,2999,0.075316,False,False,False,False,0,0.00%,Low,CORRECT,Normal spatial pattern
95079,204803.0,,538066.0,S,9.0,SINGAPORE,SINGAPORE,,116162190.0,116162190.0,1.34574,103.87426,1.34578,103.87411,64B,BARTLEY RISE ESTATE,JALAN LABU AYER,JALAN LABU AYER,N,2212,0.000283,103.8739,1.34597,False,103.87411,1.34578,0.000214,0.000959,2999,0.02657,False,False,False,False,0,0.00%,Low,CORRECT,Normal spatial pattern
75204,145283.0,,424733.0,S,8.0,SINGAPORE,SINGAPORE,,939889855.0,939889855.0,1.30739,103.90317,1.30733,103.90312,341,,ONAN RD,ONAN RD,N,264,0.00077,103.9035,1.30666,False,103.90312,1.30733,0.000854,0.00156,2999,0.062913,False,False,False,False,0,0.00%,Low,CORRECT,Normal spatial pattern
18443,176320.0,,276610.0,S,8.0,SINGAPORE,SINGAPORE,,116141872.0,116141872.0,1.32014,103.78913,1.32003,103.78931,526,MING TECK PARK,SIXTH AVE,SIXTH AVE,N,4224,0.003057,103.7899,1.31703,False,103.78931,1.32003,0.000311,0.000576,2999,0.062062,False,False,False,False,0,0.00%,Low,CORRECT,Normal spatial pattern
68657,239799.0,,698974.0,S,8.0,SINGAPORE,SINGAPORE,,930645275.0,930645275.0,1.39391,103.72766,1.39392,103.72761,18,,SUNGEI TENGAH RD,SUNGEI TENGAH RD,N,5249,0.000488,103.7277,1.3944,True,103.72761,1.39392,0.005906,0.004293,2999,0.132972,True,True,True,True,-1,135.00%,Very High,INCORRECT,Far from streets; Isolated from other POIs; Spatial clustering outlier
90804,205227.0,,358694.0,S,9.0,SINGAPORE,SINGAPORE,,116144025.0,116144025.0,1.34515,103.86283,1.34515,103.86282,8H,LYNWOOD EIGHT,LYNWOOD GRV,LYNWOOD GRV,N,5041,0.001588,103.8638,1.3464,False,103.86282,1.34515,0.000857,0.000454,2999,0.015721,False,False,False,False,0,0.00%,Low,CORRECT,Normal spatial pattern
47052,142389.0,,218565.0,S,8.0,SINGAPORE,SINGAPORE,,859151730.0,859151730.0,1.30837,103.85106,1.30848,103.85091,56,,RACE COURSE RD,RACE COURSE RD,N,3122,0.001109,103.8519,1.30898,False,103.85091,1.30848,0.000502,0.000595,2999,0.030214,False,False,False,False,0,0.00%,Low,CORRECT,Normal spatial pattern
44373,145985.0,,207376.0,S,8.0,SINGAPORE,SINGAPORE,,834020667.0,834020667.0,1.30548,103.85465,1.30566,103.85474,19,,UPP WELD RD,UPP WELD RD,N,5776,0.000383,103.8551,1.30579,False,103.85474,1.30566,0.000505,0.000858,2999,0.033521,False,False,False,False,0,0.00%,Low,CORRECT,Normal spatial pattern
95397,200985.0,,536435.0,S,9.0,SINGAPORE,SINGAPORE,,116164700.0,116164700.0,1.34889,103.87829,1.34874,103.87843,57A,FENGLI GARDENS,LOR ONG LYE,LOR ONG LYE,N,1142,0.000436,103.8788,1.34851,False,103.87843,1.34874,0.000822,0.001187,2999,0.031574,False,False,False,False,0,0.00%,Low,CORRECT,Normal spatial pattern
101009,180542.0,,309362.0,S,9.0,SINGAPORE,SINGAPORE,,855269537.0,855269536.0,1.32616,103.83945,1.32648,103.83975,6B,,DYSON RD,DYSON RD,N,1639,0.001172,103.8387,1.32596,False,103.83975,1.32648,0.000424,0.000541,2999,0.014965,False,False,False,False,0,0.00%,Low,CORRECT,Normal spatial pattern
119273,135810.0,,239431.0,S,9.0,SINGAPORE,SINGAPORE,,966822267.0,842397860.0,1.29343,103.83308,1.29332,103.8329,110,,KIM SENG RD,KIM SENG RD,N,3906,0.000279,103.8328,1.29358,False,103.8329,1.29332,0.000297,0.0009,2999,0.047901,False,False,False,False,0,0.00%,Low,CORRECT,Normal spatial pattern
90421,172442.0,,279751.0,S,9.0,SINGAPORE,SINGAPORE,,116143020.0,116143020.0,1.32358,103.78407,1.32376,103.7837,17A,,EWART PARK,EWART PARK,N,4331,0.002419,103.7825,1.32586,False,103.7837,1.32376,0.00208,0.00083,2999,0.066505,False,False,False,False,0,0.00%,Low,CORRECT,Normal spatial pattern
633,245382.0,,732002.0,S,7.0,SINGAPORE,SINGAPORE,,917218859.0,917218852.0,1.44029,103.77643,1.44054,103.77633,2A,,MARSILING DR,MARSILING DR,Y,5610,0.002516,103.7788,1.44102,True,103.77633,1.44054,0.002766,7.8e-05,2999,0.124917,False,True,True,True,-1,75.00%,High,INCORRECT,Spatial clustering outlier
67111,240713.0,,569058.0,S,8.0,SINGAPORE,SINGAPORE,,925885115.0,925885115.0,1.38823,103.84871,1.38823,103.84867,2,TOTAL SWISS,ANG MO KIO ST 65,ANG MO KIO ST 65,N,5176,0.002396,103.8485,1.39062,False,103.84867,1.38823,0.000951,0.00041,2999,0.04963,False,False,False,False,5,0.00%,Low,CORRECT,Normal spatial pattern
12270,227267.0,,546902.0,S,8.0,SINGAPORE,SINGAPORE,,116137736.0,116137736.0,1.36752,103.88047,1.36749,103.88069,70,POH HUAT GARDENS,POH HUAT CRES,POH HUAT CRES,N,5581,0.002891,103.8778,1.36757,False,103.88069,1.36749,0.000588,0.000647,2999,0.043232,False,False,False,False,0,0.00%,Low,CORRECT,Normal spatial pattern
93132,188770.0,,287842.0,S,9.0,SINGAPORE,SINGAPORE,,116156122.0,116155821.0,1.33231,103.79942,1.33216,103.79956,3,ORCHID VILLAGE,VANDA DR,VANDA DR,N,4046,0.002019,103.799,1.33022,False,103.79956,1.33216,8.6e-05,0.001273,2999,0.04939,False,False,False,False,0,0.00%,Low,CORRECT,Normal spatial pattern
103373,143676.0,,139250.0,S,9.0,SINGAPORE,SINGAPORE,,878047268.0,116155905.0,1.30626,103.78759,1.30633,103.78738,35,,ROCHESTER PARK,ROCHESTER PARK,N,2010,0.000301,103.7874,1.30663,False,103.78738,1.30633,0.000532,0.001104,2999,0.069141,False,False,False,True,21,25.00%,Low,CORRECT,Normal spatial pattern
318,229735.0,,689859.0,S,7.0,SINGAPORE,SINGAPORE,,845470870.0,845470870.0,1.38326,103.7478,1.38326,103.7478,311,,CHOA CHU KANG AVE 3,CHOA CHU KANG DR,N,-1,-1.0,-1.0,-1.0,False,103.7478,1.38326,0.003016,0.001006,2999,0.110185,False,True,False,False,8,20.00%,Low,CORRECT,Normal spatial pattern
38846,230773.0,,805526.0,S,8.0,SINGAPORE,SINGAPORE,,753767825.0,753767825.0,1.38448,103.86073,1.38466,103.86072,1,,MIMOSA PL,MIMOSA PL,N,1844,0.002264,103.8618,1.38267,False,103.86072,1.38466,1e-05,0.000632,2999,0.047646,False,False,False,False,5,0.00%,Low,CORRECT,Normal spatial pattern
23038,144807.0,,218039.0,S,8.0,SINGAPORE,SINGAPORE,,116145014.0,116145014.0,1.30763,103.85257,1.30763,103.85256,136,,SERANGOON RD,SERANGOON RD,N,3554,0.000279,103.8523,1.30773,False,103.85256,1.30763,0.000649,0.000259,2999,0.031232,False,False,False,False,0,0.00%,Low,CORRECT,Normal spatial pattern
60883,213023.0,,520943.0,S,8.0,SINGAPORE,SINGAPORE,,915136542.0,915136542.0,1.35024,103.94118,1.35018,103.94098,943,,TAMPINES AVE 5,TAMPINES AVE 5,Y,4647,0.002701,103.94006,1.35272,False,103.94098,1.35018,0.00212,0.00034,2999,0.093174,False,False,False,False,2,0.00%,Low,CORRECT,Normal spatial pattern
74686,142708.0,,439260.0,S,8.0,SINGAPORE,SINGAPORE,,939880769.0,939880769.0,1.30865,103.8953,1.30885,103.89525,8,,DUNMAN LN,DUNMAN LN,N,5012,0.002511,103.8932,1.3103,False,103.89525,1.30885,0.000632,0.000472,2999,0.05539,False,False,False,False,0,0.00%,Low,CORRECT,Normal spatial pattern
11075,207451.0,,557148.0,S,8.0,SINGAPORE,SINGAPORE,,116136254.0,116136254.0,1.35552,103.86419,1.35562,103.86414,25,GOLDEN HILL ESTATE,LI HWAN CLOS,LI HWAN CLOS,N,5575,0.001854,103.8623,1.35539,False,103.86414,1.35562,0.00084,0.000714,2999,0.023095,False,False,False,False,0,0.00%,Low,CORRECT,Normal spatial pattern
35026,145090.0,,423892.0,S,8.0,SINGAPORE,SINGAPORE,,116162202.0,116162202.0,1.30734,103.91323,1.30725,103.91304,383,ST. PATRICK'S ROWS,TELOK KURAU RD,TELOK KURAU RD,N,1273,0.001091,103.91222,1.30797,False,103.91304,1.30725,0.001098,0.000894,2999,0.071726,False,False,False,False,0,0.00%,Low,CORRECT,Normal spatial pattern
40920,249593.0,,768380.0,S,8.0,SINGAPORE,SINGAPORE,,762719842.0,762719843.0,1.41722,103.8474,1.41722,103.8474,388,SHAUGHNESSY,MILTONIA CLOS,MILTONIA CLOS,N,-1,-1.0,-1.0,-1.0,True,103.8474,1.41722,0.0001,0.003545,2999,0.078628,True,True,False,False,18,60.00%,Medium,INCORRECT,Far from streets
97951,135906.0,,127330.0,S,9.0,SINGAPORE,SINGAPORE,,774486177.0,774486176.0,1.29448,103.76681,1.29436,103.76684,33E,,WEST COAST RD,WEST COAST RD,N,1742,0.000752,103.7669,1.29511,False,103.76684,1.29436,0.000112,0.000909,2999,0.092899,False,False,False,False,7,0.00%,Low,CORRECT,Normal spatial pattern
80927,230475.0,,805870.0,S,8.0,SINGAPORE,SINGAPORE,,940504440.0,940504440.0,1.38438,103.873,1.38426,103.87289,34,KELULUT HILL,KELULUT HL,KELULUT HL,N,701,0.004046,103.8769,1.38372,False,103.87289,1.38426,0.000623,8.5e-05,2999,0.051752,False,False,False,False,5,0.00%,Low,CORRECT,Normal spatial pattern
12879,138193.0,,118925.0,S,8.0,SINGAPORE,SINGAPORE,,116139248.0,116139248.0,1.29229,103.77115,1.2921,103.77117,29,EALINE PARK,PASIR PANJANG DR,PASIR PANJANG DR,N,2150,0.002907,103.7685,1.29325,False,103.77117,1.2921,0.00055,0.000556,2999,0.090258,False,False,False,False,7,0.00%,Low,CORRECT,Normal spatial pattern
85003,173337.0,,417116.0,S,9.0,SINGAPORE,SINGAPORE,,116131498.0,116131498.0,1.32234,103.90936,1.3225,103.90934,44B,,LOR MARZUKI,LOR MARZUKI,N,5301,0.001116,103.91,1.3234,False,103.90934,1.3225,0.000465,0.001393,2999,0.062907,False,False,False,False,0,0.00%,Low,CORRECT,Normal spatial pattern
47169,197881.0,,589832.0,S,8.0,SINGAPORE,SINGAPORE,,860277991.0,860277991.0,1.33665,103.78708,1.33664,103.78711,31,BINJAI PARK,BINJAI PARK,BINJAI PARK,N,337,0.00102,103.7863,1.33602,False,103.78711,1.33664,0.00087,0.000121,2999,0.061449,False,False,False,False,0,0.00%,Low,CORRECT,Normal spatial pattern
117647,208573.0,,555450.0,S,9.0,SINGAPORE,SINGAPORE,,940186356.0,116136262.0,1.35734,103.86318,1.35738,103.86298,105,TAI HWAN GARDEN,TAI HWAN HTS,TAI HWAN HTS,N,5575,0.002103,103.8623,1.35539,False,103.86298,1.35738,0.000468,0.00077,2999,0.023697,False,False,False,False,0,0.00%,Low,CORRECT,Normal spatial pattern
84797,200348.0,,535748.0,S,9.0,SINGAPORE,SINGAPORE,,116131240.0,116131240.0,1.34781,103.87696,1.34782,103.87714,3,ARDISIA GARDENS,SERANGOON TER,SERANGOON TER,N,6048,0.001521,103.8778,1.34919,False,103.87714,1.34782,0.000362,0.000653,2999,0.030061,False,False,False,False,0,0.00%,Low,CORRECT,Normal spatial pattern
26846,230121.0,,809138.0,S,8.0,SINGAPORE,SINGAPORE,,116148541.0,116148541.0,1.38416,103.86994,1.38419,103.86977,24,SELETAR HILLS ESTATE,JALAN JITONG,JALAN JITONG,N,1842,0.002604,103.8695,1.3816,False,103.86977,1.38419,1.4e-05,0.000977,2999,0.050296,False,False,False,False,5,0.00%,Low,CORRECT,Normal spatial pattern
1177,190197.0,,418103.0,S,8.0,SINGAPORE,SINGAPORE,,116130953.0,116130953.0,1.33064,103.90773,1.33053,103.90771,14,,JALAN SINGA,JALAN SINGA,N,1125,0.001731,103.9082,1.32887,False,103.90771,1.33053,0.000538,0.001309,2999,0.059729,False,False,False,False,0,0.00%,Low,CORRECT,Normal spatial pattern
59692,211797.0,,648509.0,S,8.0,SINGAPORE,SINGAPORE,,914328000.0,914328000.0,1.35318,103.69978,1.353,103.6997,142,WESTVILLE,WESTWOOD CRES,WESTWOOD CRES,N,489,0.003001,103.6972,1.35134,False,103.6997,1.353,0.000302,0.001252,2999,0.149523,False,False,False,False,3,0.00%,Low,CORRECT,Normal spatial pattern
18193,150444.0,,389309.0,S,8.0,SINGAPORE,SINGAPORE,,116141762.0,116141762.0,1.31235,103.87728,1.3123,103.87729,251,,GEYLANG RD,GEYLANG RD,N,4961,0.000352,103.877,1.3121,False,103.87729,1.3123,1e-05,0.000214,2999,0.038974,False,False,False,False,0,0.00%,Low,CORRECT,Normal spatial pattern
9321,232726.0,,574484.0,S,8.0,SINGAPORE,SINGAPORE,,116135836.0,116135836.0,1.37662,103.83342,1.37654,103.83323,49,HAPPY PARK,THOMSON WALK,THOMSON WALK,N,602,0.000827,103.8337,1.37586,False,103.83323,1.37654,0.000877,0.001106,2999,0.040908,False,False,False,False,5,0.00%,Low,CORRECT,Normal spatial pattern
72343,200829.0,,579914.0,S,8.0,SINGAPORE,SINGAPORE,,939353019.0,939353019.0,1.34886,103.84556,1.34901,103.84553,52,LAUW AND SONS GARDEN,BINCHANG RISE,BINCHANG RISE,N,5200,0.003403,103.8427,1.3509,False,103.84553,1.34901,0.000726,0.00031,2999,0.010833,False,False,False,False,0,0.00%,Low,CORRECT,Normal spatial pattern
94617,158827.0,,219252.0,S,9.0,SINGAPORE,SINGAPORE,,116159430.0,116158529.0,1.31346,103.84621,1.31353,103.8461,94,,KENG LEE RD,KENG LEE RD,N,623,0.000825,103.8463,1.31273,False,103.8461,1.31353,0.000532,0.000692,2999,0.025188,False,False,False,False,0,0.00%,Low,CORRECT,Normal spatial pattern
83742,134949.0,,437847.0,S,8.0,SINGAPORE,SINGAPORE,,992587428.0,992587428.0,1.30089,103.89181,1.30033,103.89193,763,,MOUNTBATTEN RD,MOUNTBATTEN RD,N,1312,0.002629,103.8944,1.29943,False,103.89193,1.30033,0.001234,0.000168,2999,0.057865,False,False,False,False,0,0.00%,Low,CORRECT,Normal spatial pattern
33223,156741.0,,423796.0,S,8.0,SINGAPORE,SINGAPORE,,116158478.0,116158478.0,1.3156,103.90967,1.31553,103.90948,93,,TELOK KURAU RD,TELOK KURAU RD,N,252,0.002256,103.9104,1.31347,False,103.90948,1.31553,0.001232,0.000201,2999,0.065172,False,False,False,False,0,0.00%,Low,CORRECT,Normal spatial pattern
83910,156471.0,,466525.0,S,8.0,SINGAPORE,SINGAPORE,,1002639759.0,1002639759.0,1.31574,103.94317,1.31555,103.94336,497,KATONG SEAVIEW PALACE,UPP EAST COAST RD,UPP EAST COAST RD,N,5915,0.000412,103.943,1.31535,False,103.94336,1.31555,0.000778,0.000722,2999,0.097593,False,False,False,True,0,25.00%,Low,CORRECT,Normal spatial pattern
31983,171034.0,,269608.0,S,8.0,SINGAPORE,SINGAPORE,,116156916.0,116156916.0,1.32359,103.80463,1.32345,103.80461,66,,CORONATION DR,CORONATION DR,N,2055,0.000247,103.8044,1.32358,False,103.80461,1.32345,0.001486,0.00053,2999,0.046458,False,False,False,False,0,0.00%,Low,CORRECT,Normal spatial pattern
19935,219504.0,,554827.0,S,8.0,SINGAPORE,SINGAPORE,,116142379.0,116142379.0,1.36029,103.86721,1.36027,103.86743,9,,CHUAN PL,CHUAN PL,N,2723,0.001598,103.8684,1.359,False,103.86743,1.36027,0.00083,0.000418,2999,0.028755,False,False,False,False,0,0.00%,Low,CORRECT,Normal spatial pattern
106019,171016.0,,309839.0,S,9.0,SINGAPORE,SINGAPORE,,901501401.0,901501401.0,1.32358,103.8474,1.32359,103.8474,11,,BASSEIN RD,BASSEIN RD,N,-1,-1.0,-1.0,-1.0,False,103.8474,1.32359,0.002875,0.000382,2999,0.015053,False,True,False,False,0,20.00%,Low,CORRECT,Normal spatial pattern
75257,221853.0,,537704.0,S,8.0,SINGAPORE,SINGAPORE,,939890766.0,939890766.0,1.36867,103.89277,1.36858,103.89292,32,MIRAMAR GARDENS,JALAN NAUNG,JALAN NAUNG,N,1420,0.00051,103.8929,1.36807,False,103.89292,1.36858,0.000276,0.00034,2999,0.053567,False,False,False,False,0,0.00%,Low,CORRECT,Normal spatial pattern
109233,243648.0,,737916.0,S,9.0,SINGAPORE,SINGAPORE,,915032548.0,940412701.0,1.44651,103.80249,1.44647,103.80339,31,ADMIRALTY SECONDARY SCHOOL,WOODLANDS CRES,WOODLANDS CRES,N,4927,0.004915,103.79901,1.44424,True,103.80339,1.44647,0.004597,0.00058,2999,0.116933,True,True,False,False,27,45.00%,Medium,INCORRECT,Isolated from other POIs
124197,150796.0,,398678.0,S,0.0,SINGAPORE,SINGAPORE,,919872957.0,919872957.0,1.31207,103.88221,1.31207,103.88219,21A,KIM TIAN HOTEL,LOR 22 GEYLANG,LOR 22 GEYLANG,N,4968,0.000901,103.8813,1.31221,False,103.88219,1.31207,0.000598,0.00049,2999,0.04286,False,False,False,False,0,0.00%,Low,CORRECT,Normal spatial pattern
37546,226613.0,,530301.0,S,8.0,SINGAPORE,SINGAPORE,,717922162.0,717922162.0,1.36778,103.89392,1.368,103.89421,301,,HOUGANG AVE 5,HOUGANG AVE 5,Y,1421,0.001311,103.8929,1.36805,False,103.89421,1.368,0.000208,0.000305,2999,0.054325,False,False,False,False,0,0.00%,Low,CORRECT,Normal spatial pattern
83065,224117.0,,557684.0,S,8.0,SINGAPORE,SINGAPORE,,979873323.0,979873323.0,1.36877,103.86591,1.36866,103.8658,18,SERANGOON GARDEN ESTATE,HEMSLEY AVE,HEMSLEY AVE,N,2179,0.003106,103.8689,1.36885,False,103.8658,1.36866,0.000227,0.002324,2999,0.034669,False,True,False,False,0,35.00%,Medium,CORRECT,Far from streets
68783,249077.0,,729246.0,S,8.0,SINGAPORE,SINGAPORE,,931270448.0,931270448.0,1.41472,103.7507,1.41477,103.7507,40,LUXX NEWHOUSE DESIGN CENTRE,SUNGEI KADUT ST 2,SUNGEI KADUT ST 2,N,5256,0.004247,103.7549,1.4154,True,103.7507,1.41477,0.005198,0.003317,2999,0.123985,True,True,False,False,22,80.00%,High,INCORRECT,Far from streets; Isolated from other POIs
90781,202194.0,,359654.0,S,9.0,SINGAPORE,SINGAPORE,,116144020.0,116144020.0,1.3461,103.86105,1.34631,103.86102,25B,,COTSWOLD CLOS,COTSWOLD CLOS,N,5039,0.002123,103.8609,1.34843,False,103.86102,1.34631,0.001408,0.001199,2999,0.014679,False,False,False,True,0,25.00%,Low,CORRECT,Normal spatial pattern
28459,176731.0,,467688.0,S,8.0,SINGAPORE,SINGAPORE,,116150396.0,116150396.0,1.31992,103.94188,1.31992,103.94179,54,KATONG SEAVIEW PALACE,LUCKY GDNS,LUCKY GDNS,N,1517,0.002387,103.9402,1.31814,False,103.94179,1.31992,0.000942,0.000848,2999,0.095114,False,False,False,False,0,0.00%,Low,CORRECT,Normal spatial pattern
91935,239521.0,,805906.0,S,9.0,SINGAPORE,SINGAPORE,,116148483.0,116148483.0,1.39183,103.85297,1.39164,103.85296,21A,CACTUS GREEN,CACTUS CRES,CACTUS CRES,N,1835,0.00172,103.85129,1.39205,False,103.85296,1.39164,0.000847,0.000495,2999,0.053225,False,False,False,False,5,0.00%,Low,CORRECT,Normal spatial pattern
85293,158258.0,,217827.0,S,9.0,SINGAPORE,SINGAPORE,,116132291.0,116132291.0,1.31488,103.85503,1.31492,103.855,15A,,SING JOO WALK,SING JOO WALK,N,6013,0.000508,103.8545,1.31483,False,103.855,1.31492,0.00012,0.000668,2999,0.024549,False,False,False,False,0,0.00%,Low,CORRECT,Normal spatial pattern
6235,147828.0,,456784.0,S,8.0,SINGAPORE,SINGAPORE,,116133210.0,116133210.0,1.31248,103.92089,1.31258,103.92112,11,FRANKEL ESTATE,LOTHIAN TER,LOTHIAN TER,N,2088,0.001597,103.9203,1.31395,False,103.92112,1.31258,0.000278,0.000305,2999,0.077114,False,False,False,False,0,0.00%,Low,CORRECT,Normal spatial pattern
93970,172636.0,,268258.0,S,9.0,SINGAPORE,SINGAPORE,,116157066.0,116157066.0,1.32245,103.79614,1.32226,103.79624,1A,,JALAN SIANTAN,JALAN SIANTAN,N,1585,0.000641,103.7966,1.32173,False,103.79624,1.32226,0.000323,0.000932,2999,0.054782,False,False,False,False,0,0.00%,Low,CORRECT,Normal spatial pattern
17839,178313.0,,287244.0,S,8.0,SINGAPORE,SINGAPORE,,116141451.0,116141451.0,1.32729,103.80797,1.32743,103.80807,21,WATTEN ESTATE,WATTEN TER,WATTEN TER,N,2013,0.000661,103.8083,1.32805,False,103.80807,1.32743,0.000677,0.001141,2999,0.041972,False,False,False,False,0,0.00%,Low,CORRECT,Normal spatial pattern
71735,186819.0,,470131.0,S,8.0,SINGAPORE,SINGAPORE,,939123046.0,939123046.0,1.33312,103.91168,1.33322,103.91163,131,,BEDOK RESERVOIR RD,BEDOK RESERVOIR RD,Y,5296,0.004843,103.91645,1.33275,False,103.91163,1.33322,0.001837,0.000724,2999,0.063331,False,False,False,False,0,0.00%,Low,CORRECT,Normal spatial pattern
111086,133354.0,,439812.0,S,9.0,SINGAPORE,SINGAPORE,,924775263.0,924775263.0,1.30348,103.88851,1.30346,103.88832,106B,,ARTHUR RD,ARTHUR RD,N,1310,0.000128,103.8884,1.30336,False,103.88832,1.30346,0.000355,0.002091,2999,0.053087,False,False,False,False,0,15.00%,Low,CORRECT,Far from streets
86824,228982.0,,507837.0,S,9.0,SINGAPORE,SINGAPORE,,116133628.0,116150477.0,1.36405,103.9713,1.36424,103.9714,30,,TOH HTS,TOH HTS,N,-1,-1.0,-1.0,-1.0,False,103.9714,1.36424,0.000886,0.000617,2999,0.125518,False,False,False,False,6,0.00%,Low,CORRECT,Normal spatial pattern
31841,225349.0,,549801.0,S,8.0,SINGAPORE,SINGAPORE,,116156774.0,116156774.0,1.36409,103.8823,1.36418,103.88246,81,FORTUNA GARDENS,DA SILVA LN,DA SILVA LN,N,4990,0.001409,103.8835,1.36323,False,103.88246,1.36418,0.000164,0.00138,2999,0.042493,False,False,False,False,0,0.00%,Low,CORRECT,Normal spatial pattern
26445,237782.0,,798017.0,S,8.0,SINGAPORE,SINGAPORE,,116148317.0,116148317.0,1.39935,103.86674,1.39939,103.86675,9,,SELETAR WEST FARMWAY 7,SELETAR WEST FARMWAY 7,N,5624,0.003866,103.8691,1.40246,False,103.86675,1.39939,0.004123,0.000522,2999,0.063462,False,True,False,False,24,20.00%,Low,CORRECT,Isolated from other POIs
96554,224951.0,,510109.0,S,9.0,SINGAPORE,SINGAPORE,,718128461.0,718128462.0,1.36847,103.95598,1.36845,103.95635,109,,PASIR RIS ST 11,PASIR RIS ST 11,Y,4929,0.003116,103.95933,1.36936,False,103.95635,1.36845,0.001172,0.000298,2999,0.111877,False,False,False,False,11,0.00%,Low,CORRECT,Normal spatial pattern
14239,169823.0,,467200.0,S,8.0,SINGAPORE,SINGAPORE,,116140222.0,116140222.0,1.31655,103.94254,1.31638,103.94251,6,KATONG SEAVIEW PALACE,RIVIERA DR,RIVIERA DR,N,1504,0.000127,103.9426,1.31629,False,103.94251,1.31638,0.001107,0.00171,2999,0.096573,False,False,False,False,0,0.00%,Low,CORRECT,Far from streets
43532,145188.0,,208262.0,S,8.0,SINGAPORE,SINGAPORE,,833602561.0,833602561.0,1.30785,103.85361,1.30802,103.85366,20,,NORRIS RD,NORRIS RD,N,1725,0.000771,103.8531,1.30855,False,103.85366,1.30802,0.000349,0.0005,2999,0.031008,False,False,False,False,0,0.00%,Low,CORRECT,Normal spatial pattern
65081,135611.0,,438319.0,S,8.0,SINGAPORE,SINGAPORE,,924815970.0,924815970.0,1.30054,103.89427,1.30031,103.89436,5,SEA VIEW PARK,JALAN SEAVIEW,JALAN SEAVIEW,N,1312,0.000881,103.8944,1.29943,False,103.89436,1.30031,0.000117,0.002127,2999,0.059722,False,False,False,False,0,15.00%,Low,CORRECT,Far from streets
73394,152180.0,,425355.0,S,8.0,SINGAPORE,SINGAPORE,,939779814.0,939779814.0,1.31125,103.91302,1.31111,103.91308,57,,LOR M TELOK KURAU,LOR M TELOK KURAU,N,2315,0.001776,103.912,1.3097,False,103.91308,1.31111,0.000956,0.001392,2999,0.070162,False,False,False,False,0,0.00%,Low,CORRECT,Normal spatial pattern
24953,222204.0,,658558.0,S,8.0,SINGAPORE,SINGAPORE,,116146238.0,116146238.0,1.37093,103.7535,1.37093,103.7533,141,PAVILION PARK,PAVILION CIR,PAVILION CIR,N,-1,-1.0,-1.0,-1.0,False,103.7533,1.37093,0.000189,0.000788,2999,0.100567,False,False,False,False,15,0.00%,Low,CORRECT,Normal spatial pattern
99145,190856.0,,460539.0,S,9.0,SINGAPORE,SINGAPORE,,826799196.0,826799193.0,1.33137,103.92481,1.3315,103.92504,539,,BEDOK NORTH ST 3,BEDOK NORTH ST 3,Y,3202,0.007035,103.9215,1.32542,True,103.92504,1.3315,0.008902,0.000184,2999,0.076841,True,True,True,True,-1,120.00%,Very High,INCORRECT,Isolated from other POIs; Spatial clustering outlier
98899,137569.0,,187954.0,S,9.0,SINGAPORE,SINGAPORE,,797880500.0,858760012.0,1.29836,103.85144,1.29844,103.85127,55,CATHOLIC WELFARE CENTRE,WATERLOO ST,WATERLOO ST,N,3733,6.7e-05,103.8513,1.2985,False,103.85127,1.29844,0.000114,0.000831,2999,0.040254,False,False,False,False,0,0.00%,Low,CORRECT,Normal spatial pattern
36547,180622.0,,307703.0,S,8.0,SINGAPORE,SINGAPORE,,116168920.0,116168920.0,1.32658,103.84006,1.32634,103.84015,3,,TAN SIM BOH RD,TAN SIM BOH RD,N,1639,0.001499,103.8387,1.32596,False,103.84015,1.32634,0.000424,0.000389,2999,0.014849,False,False,False,False,0,0.00%,Low,CORRECT,Normal spatial pattern
551,182444.0,,639420.0,S,7.0,SINGAPORE,SINGAPORE,,905379961.0,715262945.0,1.32516,103.65184,1.32546,103.65232,29,ZICOM,TUAS AVE 3,TUAS AVE 4,N,843,0.000524,103.6522,1.32597,True,103.65232,1.32546,0.003098,0.00024,2999,0.196648,True,True,False,False,14,45.00%,Medium,INCORRECT,Normal spatial pattern
55347,133357.0,,248567.0,S,8.0,SINGAPORE,SINGAPORE,,901972056.0,901972056.0,1.30349,103.80619,1.30371,103.80641,12,PEIRCE VILLAS,PEIRCE HL,PEIRCE HL,N,830,0.000712,103.8067,1.30436,False,103.80641,1.30371,0.001319,0.000752,2999,0.054693,False,False,False,False,0,0.00%,Low,CORRECT,Normal spatial pattern
99578,126507.0,,89690.0,S,9.0,SINGAPORE,SINGAPORE,,833660447.0,1020555733.0,1.27773,103.84214,1.27787,103.84228,52,,CRAIG RD,CRAIG RD,N,653,0.001067,103.8432,1.27841,False,103.84228,1.27787,0.000693,0.001325,2999,0.061051,False,False,False,False,0,0.00%,Low,CORRECT,Normal spatial pattern
18601,171220.0,,269138.0,S,8.0,SINGAPORE,SINGAPORE,,116141909.0,116141909.0,1.32362,103.80263,1.32366,103.80289,85,DUCHESS GARDEN,DUCHESS AVE,DUCHESS AVE,N,1563,0.001076,103.8021,1.32439,False,103.80289,1.32366,0.000685,0.000698,2999,0.048021,False,False,False,False,0,0.00%,Low,CORRECT,Normal spatial pattern
53502,162520.0,,128099.0,S,8.0,SINGAPORE,SINGAPORE,,897718443.0,897718443.0,1.31359,103.75734,1.31347,103.75722,45,HONG LEONG GARDEN,WEST COAST AVE,WEST COAST AVE,N,1435,0.001524,103.7569,1.31198,False,103.75722,1.31347,0.000638,5.8e-05,2999,0.094703,False,False,False,False,7,0.00%,Low,CORRECT,Normal spatial pattern
6246,153719.0,,458912.0,S,8.0,SINGAPORE,SINGAPORE,,116133224.0,116133224.0,1.31069,103.92102,1.3104,103.92139,1,,EAST COAST TER,EAST COAST TER,N,996,0.00193,103.9232,1.31107,False,103.92139,1.3104,0.000848,0.000802,2999,0.078129,False,False,False,False,0,0.00%,Low,CORRECT,Normal spatial pattern
110314,229465.0,,545061.0,S,9.0,SINGAPORE,SINGAPORE,,920958654.0,920958654.0,1.38288,103.89297,1.38287,103.89306,10,BUANGKOK-MRT,SENGKANG CENTRAL,SENGKANG CENTRAL,N,405,0.004427,103.8971,1.38106,False,103.89306,1.38287,0.001145,0.001216,2999,0.062792,False,False,False,True,40,25.00%,Low,CORRECT,Normal spatial pattern
91864,249427.0,,829497.0,S,9.0,SINGAPORE,SINGAPORE,,116147737.0,116147739.0,1.41943,103.90934,1.4194,103.90959,31,PONGGOL PARK,PONGGOL TWENTY-FOURTH AVE,PONGGOL TWENTY-FOURTH AVE,N,5013,0.001085,103.9103,1.42022,True,103.90959,1.4194,0.000153,0.000729,2999,0.101278,False,False,True,True,-1,55.00%,Medium,INCORRECT,Spatial clustering outlier
61465,152960.0,,398879.0,S,8.0,SINGAPORE,SINGAPORE,,917074737.0,917074737.0,1.31139,103.87999,1.31139,103.87992,45,,LOR 16 GEYLANG,LOR 16 GEYLANG,N,4969,0.000612,103.8803,1.31091,False,103.87992,1.31139,0.000921,0.001361,2999,0.041543,False,False,False,False,0,0.00%,Low,CORRECT,Normal spatial pattern
53281,155739.0,,127986.0,S,8.0,SINGAPORE,SINGAPORE,,897693573.0,897693573.0,1.31526,103.75835,1.3149,103.75819,63,HONG LEONG GARDEN,WEST COAST DR,WEST COAST DR,N,4398,0.000447,103.7579,1.31524,False,103.75819,1.3149,0.000939,0.001571,2999,0.093395,False,False,False,False,7,0.00%,Low,CORRECT,Normal spatial pattern
22869,166290.0,,129530.0,S,8.0,SINGAPORE,SINGAPORE,,116144954.0,116144954.0,1.3183,103.75891,1.31816,103.75906,17,FABER HILLS,FABER AVE,FABER AVE,N,775,0.002533,103.7567,1.31724,False,103.75906,1.31816,0.000776,0.001749,2999,0.091773,False,False,False,False,7,0.00%,Low,CORRECT,Far from streets
41441,146888.0,,247931.0,S,8.0,SINGAPORE,SINGAPORE,,778516217.0,778516217.0,1.30528,103.82423,1.30533,103.82423,145,,TANGLIN RD,TANGLIN RD,N,4212,0.000495,103.8243,1.30582,False,103.82423,1.30533,0.000392,0.000523,2999,0.041198,False,False,False,False,0,0.00%,Low,CORRECT,Normal spatial pattern
24618,194426.0,,659541.0,S,8.0,SINGAPORE,SINGAPORE,,116145976.0,116145976.0,1.34086,103.75183,1.34103,103.75193,2036,JELCO,BUKIT BATOK ST 23,BUKIT BATOK ST 23,Y,4317,0.001135,103.753,1.34141,False,103.75193,1.34103,0.002208,0.001933,2999,0.096629,False,False,False,True,0,25.00%,Low,CORRECT,Far from streets
105213,126644.0,,119522.0,S,9.0,SINGAPORE,SINGAPORE,,897580194.0,897580199.0,1.27942,103.79363,1.27918,103.79147,38D,ISLAND VIEW,JALAN MAT JAMBOL,JALAN MAT JAMBOL,N,407,0.000633,103.7916,1.2798,False,103.79147,1.27918,0.00044,0.000226,2999,0.08238,False,False,False,False,9,0.00%,Low,CORRECT,Normal spatial pattern
23262,125055.0,,118503.0,S,8.0,SINGAPORE,SINGAPORE,,116145117.0,116145117.0,1.27367,103.79852,1.27376,103.79855,43,,PASIR PANJANG RD,PASIR PANJANG RD,N,1873,0.000939,103.7994,1.27336,True,103.79855,1.27376,0.005668,0.001056,2999,0.081866,True,True,False,True,9,90.00%,Very High,INCORRECT,Isolated from other POIs
49462,146971.0,,139221.0,S,8.0,SINGAPORE,SINGAPORE,,878047269.0,878047268.0,1.3057,103.78743,1.30581,103.78749,10,,ROCHESTER PARK,ROCHESTER PARK,N,4183,0.00012,103.7875,1.30593,False,103.78749,1.30581,0.000532,0.000652,2999,0.069288,False,False,False,True,21,25.00%,Low,CORRECT,Normal spatial pattern
87573,208849.0,,555724.0,S,9.0,SINGAPORE,SINGAPORE,,116136294.0,116136292.0,1.35686,103.86897,1.35703,103.86899,24,SUMMER PLACE,SUMMER PL,SUMMER PL,N,1409,0.000846,103.8697,1.35749,False,103.86899,1.35703,0.001327,0.00064,2999,0.027538,False,False,False,False,0,0.00%,Low,CORRECT,Normal spatial pattern
82313,248710.0,,769738.0,S,8.0,SINGAPORE,SINGAPORE,,945011860.0,945011860.0,1.43925,103.82646,1.43931,103.82636,16,SEMBAWANG SPRINGS ESTATE,JALAN KEMUNING,JALAN KEMUNING,N,287,0.002216,103.825,1.43756,False,103.82636,1.43931,0.000382,0.001589,2999,0.103121,False,False,False,False,16,0.00%,Low,CORRECT,Normal spatial pattern
58311,138484.0,,248347.0,S,8.0,SINGAPORE,SINGAPORE,,913997594.0,913997594.0,1.29379,103.82677,1.29375,103.8268,462,,RIVER VALLEY RD,RIVER VALLEY RD,N,871,0.000108,103.8269,1.29379,False,103.8268,1.29375,0.002493,0.000194,2999,0.049836,False,False,False,False,0,0.00%,Low,CORRECT,Normal spatial pattern
121742,211636.0,,574367.0,S,0.0,SINGAPORE,SINGAPORE,,116161175.0,116161175.0,1.35307,103.83493,1.35305,103.83492,236A,,UPP THOMSON RD,UPP THOMSON RD,N,900,0.000388,103.8346,1.35283,False,103.83492,1.35305,0.000318,0.000726,2999,0.019849,False,False,False,False,0,0.00%,Low,CORRECT,Normal spatial pattern
52955,154304.0,,637787.0,S,8.0,SINGAPORE,SINGAPORE,,897466386.0,897466386.0,1.31014,103.62776,1.31052,103.6283,65,CENTILLION ENVIRONMENT & RECYCLING,TECH PARK CRES,TECH PARK CRES,N,4149,0.008325,103.6266,1.30237,True,103.6283,1.31052,0.002855,0.002162,2999,0.222011,True,True,False,False,28,60.00%,Medium,INCORRECT,Far from streets
109479,233362.0,,670108.0,S,9.0,SINGAPORE,SINGAPORE,,916263004.0,897440961.0,1.37762,103.76716,1.37785,103.7672,108,,GANGSA RD,GANGSA RD,Y,2625,0.005265,103.7692,1.37298,False,103.7672,1.37785,0.001317,0.000983,2999,0.090304,False,False,False,False,8,0.00%,Low,CORRECT,Normal spatial pattern
88956,193341.0,,489252.0,S,9.0,SINGAPORE,SINGAPORE,,116140648.0,116140680.0,1.33975,103.95514,1.33957,103.95523,44,MISTRAL PARK,JALAN ANGIN LAUT,JALAN ANGIN LAUT,N,6002,0.003716,103.9517,1.34073,False,103.95523,1.33957,0.000572,0.000625,2999,0.106706,False,False,False,False,0,0.00%,Low,CORRECT,Normal spatial pattern
